     2.11           Observation         G (GPS)             RINEX VERSION / TYPE
GRID/binflate       Cornell University  11/11/2013 20:01:02 PGM / RUN BY / DATE
PH Hall                                                     MARKER NAME
Cornell MAE 4150 StuCU GNSS Lab                             OBSERVER / AGENCY
0                   CASES               HWV3_SWV2.0.0       REC # / TYPE / VERS
0                   Antcom something or                     ANT # / TYPE
  -742005.6910 -5462221.1396  3198004.5332                  APPROX POSITION XYZ
        0.0000        0.0000        0.0000                  ANTENNA: DELTA H/E/N
     1     1                                                WAVELENGTH FACT L1/2
     8    C1    L1    S1    D1    C2    L2    S2    D2      # / TYPES OF OBSERV
  2013    11    12     0    39    8.1020984     GPS         TIME OF FIRST OBS
                                                            END OF HEADER
 13 11 12  0 39  8.1020984  0  9G11G12G14G15G18G19G21G22G24
  16183227.669 5   -760342.070 5        40.854 5      3613.478 5         0.000  
         0.000           0.000           0.000  
  14719335.120 5  -6497314.510 5        40.809 5      4021.501 5         0.000  
         0.000           0.000           0.000  
  12614405.028 6 -26469111.862 6        45.918 6      3159.067 6         0.000  
         0.000           0.000           0.000  
  14651150.654 6 -33591071.946 6        43.301 6     -1751.611 6         0.000  
         0.000           0.000           0.000  
  11185694.115 6 -46342510.327 6        43.493 6       575.181 6         0.000  
         0.000           0.000           0.000  
  16139229.375 5  -7314121.483 5        41.545 5      -206.618 5         0.000  
         0.000           0.000           0.000  
  13536900.897 6 -36540583.639 6        43.416 6     -1966.851 6         0.000  
         0.000           0.000           0.000  
  11361183.204 7 -39092250.005 7        46.077 7      2569.685 7         0.000  
         0.000           0.000           0.000  
  12073763.989 7 -28107638.852 7        48.261 7      -485.661 7         0.000  
         0.000           0.000           0.000  
 13 11 12  0 39  9.1020959  0  9G11G12G14G15G18G19G21G22G24
  16182540.019 5   -763955.225 5        40.728 5      3612.423 5         0.000  
         0.000           0.000           0.000  
  14718570.610 5  -6501335.919 5        40.766 5      4021.118 5         0.000  
         0.000           0.000           0.000  
  12613803.766 7 -26472270.740 7        46.094 7      3158.789 7         0.000  
         0.000           0.000           0.000  
  14651484.032 6 -33589320.361 6        43.102 6     -1751.591 6         0.000  
         0.000           0.000           0.000  
  11185584.995 6 -46343085.195 6        43.679 6       574.673 6         0.000  
         0.000           0.000           0.000  
  16139268.883 5  -7313914.459 5        41.755 5      -207.373 5         0.000  
         0.000           0.000           0.000  
  13537275.386 5 -36538616.976 5        42.937 5     -1966.476 5         0.000  
         0.000           0.000           0.000  
  11360694.432 6 -39094819.446 6        45.937 6      2569.227 6         0.000  
         0.000           0.000           0.000  
  12073856.577 7 -28107152.993 7        48.314 7      -486.085 7         0.000  
         0.000           0.000           0.000  
 13 11 12  0 39 10.1030933  0  9G11G12G14G15G18G19G21G22G24
  16181851.877 5   -767571.636 5        40.590 5      3612.887 5         0.000  
         0.000           0.000           0.000  
  14717805.060 5  -6505361.199 5        40.810 5      4021.146 5         0.000  
         0.000           0.000           0.000  
  12613202.104 6 -26475432.603 6        45.881 6      3158.455 6         0.000  
         0.000           0.000           0.000  
  14651817.859 6 -33587567.067 6        43.572 6     -1751.601 6         0.000  
         0.000           0.000           0.000  
  11185475.812 6 -46343660.256 6        43.572 6       574.090 6         0.000  
         0.000           0.000           0.000  
  16139308.628 5  -7313706.871 5        42.196 5      -207.636 5         0.000  
         0.000           0.000           0.000  
  13537650.205 6 -36536648.130 6        43.440 6     -1967.483 6         0.000  
         0.000           0.000           0.000  
  11360205.282 6 -39097391.152 6        45.995 6      2568.843 6         0.000  
         0.000           0.000           0.000  
  12073949.405 7 -28106666.165 7        48.182 7      -486.691 7         0.000  
         0.000           0.000           0.000  
 13 11 12  0 39 11.1020908  0  9G11G12G14G15G18G19G21G22G24
  16181165.110 5   -771180.384 5        40.265 5      3612.244 5         0.000  
         0.000           0.000           0.000  
  14717040.975 5  -6509378.192 5        41.067 5      4020.783 5         0.000  
         0.000           0.000           0.000  
  12612601.619 7 -26478587.885 7        46.195 7      3158.394 7         0.000  
         0.000           0.000           0.000  
  14652150.850 6 -33585817.237 6        43.167 6     -1751.687 6         0.000  
         0.000           0.000           0.000  
  11185366.746 6 -46344233.727 6        44.099 6       573.820 6         0.000  
         0.000           0.000           0.000  
  16139348.420 5  -7313499.234 5        42.300 5      -208.016 5         0.000  
         0.000           0.000           0.000  
  13538024.516 6 -36534682.957 6        43.370 6     -1967.210 6         0.000  
         0.000           0.000           0.000  
  11359717.266 6 -39099957.339 6        45.879 6      2568.679 6         0.000  
         0.000           0.000           0.000  
  12074041.993 7 -28106179.766 7        48.226 7      -487.135 7         0.000  
         0.000           0.000           0.000  
 13 11 12  0 39 12.1030882  0  9G11G12G14G15G18G19G21G22G24
  16180477.168 5   -774796.002 5        40.159 5      3612.343 5         0.000  
         0.000           0.000           0.000  
  14716275.004 5  -6513403.070 5        41.082 5      4020.586 5         0.000  
         0.000           0.000           0.000  
  12612000.026 7 -26481749.310 7        46.094 7      3158.142 7         0.000  
         0.000           0.000           0.000  
  14652484.649 6 -33584063.958 6        43.201 6     -1751.442 6         0.000  
         0.000           0.000           0.000  
  11185257.253 6 -46344807.975 6        43.515 6       573.220 6         0.000  
         0.000           0.000           0.000  
  16139388.500 5  -7313290.824 5        41.848 5      -207.972 5         0.000  
         0.000           0.000           0.000  
  13538399.627 6 -36532713.655 6        43.348 6     -1967.585 6         0.000  
         0.000           0.000           0.000  
  11359228.265 6 -39102528.380 6        45.988 6      2568.121 6         0.000  
         0.000           0.000           0.000  
  12074134.769 7 -28105691.919 7        47.970 7      -487.727 7         0.000  
         0.000           0.000           0.000  
 13 11 12  0 39 13.1020857  0  9G11G12G14G15G18G19G21G22G24
  16179790.529 5   -778403.986 5        40.008 5      3610.979 5         0.000  
         0.000           0.000           0.000  
  14715510.677 5  -6517419.702 5        40.792 5      4020.661 5         0.000  
         0.000           0.000           0.000  
  12611399.721 7 -26484904.190 7        46.080 7      3157.977 7         0.000  
         0.000           0.000           0.000  
  14652817.717 6 -33582314.173 6        43.382 6     -1751.647 6         0.000  
         0.000           0.000           0.000  
  11185148.199 6 -46345380.675 6        43.263 6       573.081 6         0.000  
         0.000           0.000           0.000  
  16139428.676 5  -7313082.399 5        42.055 5      -208.703 5         0.000  
         0.000           0.000           0.000  
  13538773.954 6 -36530748.053 6        43.206 6     -1967.635 6         0.000  
         0.000           0.000           0.000  
  11358740.317 6 -39105093.915 6        45.856 6      2568.065 6         0.000  
         0.000           0.000           0.000  
  12074227.291 7 -28105204.525 7        47.932 7      -488.011 7         0.000  
         0.000           0.000           0.000  
 13 11 12  0 39 14.1030831  0  9G11G12G14G15G18G19G21G22G24
  16179102.744 5   -782018.724 5        40.400 5      3610.920 5         0.000  
         0.000           0.000           0.000  
  14714745.117 5  -6521444.121 5        40.868 5      4020.631 5         0.000  
         0.000           0.000           0.000  
  12610798.249 6 -26488065.114 6        45.769 6      3157.695 6         0.000  
         0.000           0.000           0.000  
  14653151.337 6 -33580560.835 6        43.130 6     -1751.635 6         0.000  
         0.000           0.000           0.000  
  11185039.234 6 -46345954.071 6        43.320 6       572.364 6         0.000  
         0.000           0.000           0.000  
  16139468.940 5  -7312873.092 5        42.302 5      -209.461 5         0.000  
         0.000           0.000           0.000  
  13539148.953 6 -36528778.222 6        43.213 6     -1968.026 6         0.000  
         0.000           0.000           0.000  
  11358251.317 6 -39107664.207 6        45.864 6      2567.839 6         0.000  
         0.000           0.000           0.000  
  12074320.187 7 -28104715.600 7        47.848 7      -488.745 7         0.000  
         0.000           0.000           0.000  
 13 11 12  0 39 15.1020806  0  9G11G12G14G15G18G19G21G22G24
  16178416.439 5   -785625.846 5        40.763 5      3610.585 5         0.000  
         0.000           0.000           0.000  
  14713981.143 5  -6525460.296 5        40.899 5      4020.138 5         0.000  
         0.000           0.000           0.000  
  12610197.979 7 -26491219.496 7        46.254 7      3157.495 7         0.000  
         0.000           0.000           0.000  
  14653484.238 6 -33578810.996 6        43.582 6     -1751.751 6         0.000  
         0.000           0.000           0.000  
  11184930.571 6 -46346525.879 6        43.496 6       571.988 6         0.000  
         0.000           0.000           0.000  
  16139509.381 5  -7312663.790 5        42.203 5      -209.652 5         0.000  
         0.000           0.000           0.000  
  13539523.260 6 -36526812.080 6        43.553 6     -1968.441 6         0.000  
         0.000           0.000           0.000  
  11357763.399 6 -39110229.026 6        45.735 6      2567.221 6         0.000  
         0.000           0.000           0.000  
  12074413.180 7 -28104227.137 7        48.174 7      -489.313 7         0.000  
         0.000           0.000           0.000  
 13 11 12  0 39 16.1030780  0  9G11G12G14G15G18G19G21G22G24
  16177728.682 5   -789239.851 5        40.925 5      3610.114 5         0.000  
         0.000           0.000           0.000  
  14713215.495 5  -6529484.405 5        41.258 5      4020.297 5         0.000  
         0.000           0.000           0.000  
  12609596.568 7 -26494380.056 7        46.078 7      3157.361 7         0.000  
         0.000           0.000           0.000  
  14653817.951 6 -33577057.739 6        43.689 6     -1751.417 6         0.000  
         0.000           0.000           0.000  
  11184821.777 6 -46347098.523 6        43.497 6       572.135 6         0.000  
         0.000           0.000           0.000  
  16139549.738 5  -7312453.755 5        42.236 5      -209.954 5         0.000  
         0.000           0.000           0.000  
  13539898.426 6 -36524841.874 6        43.459 6     -1968.343 6         0.000  
         0.000           0.000           0.000  
  11357274.340 6 -39112798.711 6        45.775 6      2567.233 6         0.000  
         0.000           0.000           0.000  
  12074506.568 7 -28103737.240 7        48.230 7      -489.618 7         0.000  
         0.000           0.000           0.000  
 13 11 12  0 39 17.1020755  0  9G11G12G14G15G18G19G21G22G24
  16177042.431 5   -792846.311 5        41.270 5      3610.150 5         0.000  
         0.000           0.000           0.000  
  14712451.210 5  -6533500.364 5        40.994 5      4019.850 5         0.000  
         0.000           0.000           0.000  
  12608996.444 7 -26497534.174 7        46.247 7      3157.315 7         0.000  
         0.000           0.000           0.000  
  14654150.875 6 -33575308.083 6        43.613 6     -1751.193 6         0.000  
         0.000           0.000           0.000  
  11184713.111 6 -46347669.699 6        43.246 6       571.419 6         0.000  
         0.000           0.000           0.000  
  16139590.202 5  -7312243.800 5        42.578 5      -210.547 5         0.000  
         0.000           0.000           0.000  
  13540272.784 6 -36522875.457 6        43.094 6     -1968.498 6         0.000  
         0.000           0.000           0.000  
  11356786.197 6 -39115363.025 6        45.496 6      2566.581 6         0.000  
         0.000           0.000           0.000  
  12074599.818 7 -28103247.913 7        48.467 7      -489.916 7         0.000  
         0.000           0.000           0.000  
 13 11 12  0 39 18.1020729  0  9G11G12G14G15G18G19G21G22G24
  16176355.826 5   -796456.088 5        41.492 5      3609.533 5         0.000  
         0.000           0.000           0.000  
  14711686.051 5  -6537520.223 5        40.811 5      4020.019 5         0.000  
         0.000           0.000           0.000  
  12608395.740 7 -26500691.325 7        46.164 7      3157.167 7         0.000  
         0.000           0.000           0.000  
  14654484.101 6 -33573556.774 6        43.714 6     -1751.066 6         0.000  
         0.000           0.000           0.000  
  11184604.266 6 -46348241.138 6        43.266 6       571.161 6         0.000  
         0.000           0.000           0.000  
  16139630.645 5  -7312033.337 5        42.206 5      -210.531 5         0.000  
         0.000           0.000           0.000  
  13540647.572 6 -36520906.938 6        43.455 6     -1968.479 6         0.000  
         0.000           0.000           0.000  
  11356297.493 6 -39117929.656 6        45.591 6      2566.650 6         0.000  
         0.000           0.000           0.000  
  12074693.239 7 -28102757.673 7        48.275 7      -490.414 7         0.000  
         0.000           0.000           0.000  
 13 11 12  0 39 19.1030703  0  9G11G12G14G15G18G19G21G22G24
  16175668.372 5   -800069.110 5        40.659 5      3609.280 5         0.000  
         0.000           0.000           0.000  
  14710919.950 5  -6541543.962 5        40.201 5      4019.916 5         0.000  
         0.000           0.000           0.000  
  12607794.459 6 -26503851.443 6        45.916 6      3156.808 6         0.000  
         0.000           0.000           0.000  
  14654817.851 6 -33571803.745 6        43.639 6     -1751.341 6         0.000  
         0.000           0.000           0.000  
  11184495.366 6 -46348812.784 6        43.180 6       570.751 6         0.000  
         0.000           0.000           0.000  
  16139671.233 5  -7311822.289 5        42.082 5      -211.332 5         0.000  
         0.000           0.000           0.000  
  13541022.718 6 -36518936.254 6        43.329 6     -1968.608 6         0.000  
         0.000           0.000           0.000  
  11355808.373 6 -39120498.551 6        45.826 6      2566.229 6         0.000  
         0.000           0.000           0.000  
  12074786.694 7 -28102266.467 7        48.053 7      -490.760 7         0.000  
         0.000           0.000           0.000  
 13 11 12  0 39 20.1020678  0  9G11G12G14G15G18G19G21G22G24
  16174982.239 4   -803674.576 4        39.352 4      3609.023 4         0.000  
         0.000           0.000           0.000  
  14710155.444 5  -6545559.495 5        40.441 5      4019.318 5         0.000  
         0.000           0.000           0.000  
  12607194.293 6 -26507005.092 6        45.906 6      3156.740 6         0.000  
         0.000           0.000           0.000  
  14655150.872 6 -33570054.290 6        43.711 6     -1751.027 6         0.000  
         0.000           0.000           0.000  
  11184386.800 5 -46349382.937 5        42.966 5       570.518 5         0.000  
         0.000           0.000           0.000  
  16139711.725 5  -7311611.309 5        42.167 5      -211.446 5         0.000  
         0.000           0.000           0.000  
  13541396.957 6 -36516969.330 6        43.041 6     -1969.041 6         0.000  
         0.000           0.000           0.000  
  11355320.213 6 -39123062.033 6        45.510 6      2565.616 6         0.000  
         0.000           0.000           0.000  
  12074879.960 7 -28101775.807 7        47.924 7      -491.279 7         0.000  
         0.000           0.000           0.000  
 13 11 12  0 39 21.1030652  0  9G11G12G14G15G18G19G21G22G24
  16174294.363 4   -807286.911 4        39.102 4      3608.878 4         0.000  
         0.000           0.000           0.000  
  14709389.536 5  -6549582.921 5        40.400 5      4019.337 5         0.000  
         0.000           0.000           0.000  
  12606592.831 6 -26510164.881 6        45.783 6      3156.461 6         0.000  
         0.000           0.000           0.000  
  14655484.574 6 -33568301.372 6        43.608 6     -1751.208 6         0.000  
         0.000           0.000           0.000  
  11184278.168 6 -46349953.877 6        43.173 6       570.383 6         0.000  
         0.000           0.000           0.000  
  16139752.657 5  -7311399.538 5        42.412 5      -211.909 5         0.000  
         0.000           0.000           0.000  
  13541771.905 6 -36514998.296 6        43.098 6     -1969.091 6         0.000  
         0.000           0.000           0.000  
  11354831.239 6 -39125630.356 6        45.621 6      2565.359 6         0.000  
         0.000           0.000           0.000  
  12074973.462 7 -28101283.716 7        47.756 7      -491.746 7         0.000  
         0.000           0.000           0.000  
 13 11 12  0 39 22.1020627  0  9G11G12G14G15G18G19G21G22G24
  16173608.093 4   -810891.677 4        39.154 4      3608.330 4         0.000  
         0.000           0.000           0.000  
  14708625.325 5  -6553598.154 5        40.871 5      4019.027 5         0.000  
         0.000           0.000           0.000  
  12605992.648 6 -26513318.175 6        45.753 6      3156.432 6         0.000  
         0.000           0.000           0.000  
  14655817.677 6 -33566552.018 6        43.733 6     -1751.143 6         0.000  
         0.000           0.000           0.000  
  11184169.723 6 -46350523.309 6        43.360 6       569.694 6         0.000  
         0.000           0.000           0.000  
  16139793.422 5  -7311187.823 5        42.609 5      -212.126 5         0.000  
         0.000           0.000           0.000  
  13542146.084 5 -36513031.000 5        42.914 5     -1969.381 5         0.000  
         0.000           0.000           0.000  
  11354343.199 6 -39128193.254 6        45.682 6      2565.574 6         0.000  
         0.000           0.000           0.000  
  12075066.939 7 -28100792.139 7        48.030 7      -492.337 7         0.000  
         0.000           0.000           0.000  
 13 11 12  0 39 23.1030601  0  9G11G12G14G15G18G19G21G22G24
  16172920.521 4   -814503.181 4        39.448 4      3607.603 4         0.000  
         0.000           0.000           0.000  
  14707859.792 5  -6557621.154 5        40.062 5      4018.690 5         0.000  
         0.000           0.000           0.000  
  12605391.226 6 -26516477.509 6        45.671 6      3156.025 6         0.000  
         0.000           0.000           0.000  
  14656151.373 6 -33564799.104 6        43.688 6     -1751.256 6         0.000  
         0.000           0.000           0.000  
  11184061.032 6 -46351093.421 6        43.149 6       569.455 6         0.000  
         0.000           0.000           0.000  
  16139834.303 5  -7310975.221 5        41.859 5      -212.507 5         0.000  
         0.000           0.000           0.000  
  13542521.239 6 -36511059.497 6        43.314 6     -1969.290 6         0.000  
         0.000           0.000           0.000  
  11353854.382 6 -39130760.899 6        45.557 6      2564.843 6         0.000  
         0.000           0.000           0.000  
  12075160.752 7 -28100299.018 7        48.248 7      -492.953 7         0.000  
         0.000           0.000           0.000  
 13 11 12  0 39 24.1020576  0  9G11G12G14G15G18G19G21G22G24
  16172234.621 5   -818106.908 5        40.010 5      3607.161 5         0.000  
         0.000           0.000           0.000  
  14707095.710 5  -6561635.754 5        40.735 5      4018.281 5         0.000  
         0.000           0.000           0.000  
  12604791.086 6 -26519630.147 6        45.789 6      3155.557 6         0.000  
         0.000           0.000           0.000  
  14656484.284 6 -33563049.541 6        43.906 6     -1751.340 6         0.000  
         0.000           0.000           0.000  
  11183952.620 5 -46351661.842 5        42.779 5       568.732 5         0.000  
         0.000           0.000           0.000  
  16139874.981 5  -7310762.461 5        41.954 5      -213.260 5         0.000  
         0.000           0.000           0.000  
  13542895.446 6 -36509091.522 6        43.060 6     -1970.479 6         0.000  
         0.000           0.000           0.000  
  11353366.752 6 -39133322.904 6        45.544 6      2563.998 6         0.000  
         0.000           0.000           0.000  
  12075254.554 7 -28099806.201 7        48.260 7      -493.713 7         0.000  
         0.000           0.000           0.000  
 13 11 12  0 39 25.1030550  0  9G11G12G14G15G18G19G21G22G24
  16171547.702 4   -821717.197 4        39.050 4      3606.260 4         0.000  
         0.000           0.000           0.000  
  14706330.348 5  -6565657.933 5        40.579 5      4017.964 5         0.000  
         0.000           0.000           0.000  
  12604189.991 6 -26522788.626 6        45.788 6      3155.094 6         0.000  
         0.000           0.000           0.000  
  14656817.920 6 -33561296.213 6        43.733 6     -1751.786 6         0.000  
         0.000           0.000           0.000  
  11183844.144 5 -46352230.736 5        42.947 5       568.328 5         0.000  
         0.000           0.000           0.000  
  16139915.948 5  -7310548.625 5        42.240 5      -213.937 5         0.000  
         0.000           0.000           0.000  
  13543270.604 6 -36507119.132 6        43.298 6     -1970.774 6         0.000  
         0.000           0.000           0.000  
  11352878.304 6 -39135889.437 6        45.580 6      2563.578 6         0.000  
         0.000           0.000           0.000  
  12075348.810 7 -28099311.645 7        48.332 7      -494.440 7         0.000  
         0.000           0.000           0.000  
 13 11 12  0 39 26.1020525  0  9G11G12G14G15G18G19G21G22G24
  16170862.307 4   -825319.580 4        39.947 4      3605.621 4         0.000  
         0.000           0.000           0.000  
  14705566.464 5  -6569671.600 5        40.394 5      4017.347 5         0.000  
         0.000           0.000           0.000  
  12603590.129 6 -26525940.293 6        45.887 6      3154.527 6         0.000  
         0.000           0.000           0.000  
  14657151.006 6 -33559546.123 6        43.478 6     -1752.375 6         0.000  
         0.000           0.000           0.000  
  11183736.102 6 -46352797.806 6        43.274 6       567.456 6         0.000  
         0.000           0.000           0.000  
  16139956.949 5  -7310334.535 5        42.345 5      -214.738 5         0.000  
         0.000           0.000           0.000  
  13543645.164 6 -36505150.168 6        43.203 6     -1971.235 6         0.000  
         0.000           0.000           0.000  
  11352390.958 6 -39138450.235 6        45.550 6      2563.088 6         0.000  
         0.000           0.000           0.000  
  12075442.997 7 -28098817.303 7        48.146 7      -495.378 7         0.000  
         0.000           0.000           0.000  
 13 11 12  0 39 27.1030499  0  9G11G12G14G15G18G19G21G22G24
  16170175.436 4   -828928.517 4        39.501 4      3605.277 4         0.000  
         0.000           0.000           0.000  
  14704801.105 5  -6573692.848 5        40.686 5      4017.174 5         0.000  
         0.000           0.000           0.000  
  12602989.221 6 -26529097.797 6        45.959 6      3153.889 6         0.000  
         0.000           0.000           0.000  
  14657484.940 6 -33557792.267 6        43.872 6     -1752.223 6         0.000  
         0.000           0.000           0.000  
  11183627.983 5 -46353365.337 5        42.959 5       566.688 5         0.000  
         0.000           0.000           0.000  
  16139998.138 5  -7310119.338 5        42.244 5      -215.101 5         0.000  
         0.000           0.000           0.000  
  13544020.609 6 -36503176.782 6        43.196 6     -1971.620 6         0.000  
         0.000           0.000           0.000  
  11351902.828 6 -39141015.560 6        45.371 6      2562.617 6         0.000  
         0.000           0.000           0.000  
  12075537.477 7 -28098321.198 7        47.969 7      -495.850 7         0.000  
         0.000           0.000           0.000  
 13 11 12  0 39 28.1030474  0  9G11G12G14G15G18G19G21G22G24
  16169489.369 4   -832533.285 4        39.274 4      3604.566 4         0.000  
         0.000           0.000           0.000  
  14704036.691 5  -6577709.710 5        41.133 5      4016.561 5         0.000  
         0.000           0.000           0.000  
  12602389.010 6 -26532251.765 6        45.774 6      3153.799 6         0.000  
         0.000           0.000           0.000  
  14657818.636 6 -33556040.020 6        44.084 6     -1752.292 6         0.000  
         0.000           0.000           0.000  
  11183520.207 6 -46353931.754 6        43.104 6       566.114 6         0.000  
         0.000           0.000           0.000  
  16140039.384 5  -7309903.791 5        42.678 5      -215.789 5         0.000  
         0.000           0.000           0.000  
  13544395.641 5 -36501204.972 5        42.914 5     -1971.742 5         0.000  
         0.000           0.000           0.000  
  11351415.367 6 -39143577.821 6        45.705 6      2562.094 6         0.000  
         0.000           0.000           0.000  
  12075631.950 7 -28097824.932 7        47.982 7      -496.604 7         0.000  
         0.000           0.000           0.000  
 13 11 12  0 39 29.1030448  0  9G11G12G14G15G18G19G21G22G24
  16168803.272 4   -836137.628 4        38.129 4      3604.389 4         0.000  
         0.000           0.000           0.000  
  14703272.110 5  -6581726.364 5        40.693 5      4016.674 5         0.000  
         0.000           0.000           0.000  
  12601788.841 7 -26535405.503 7        46.019 7      3153.559 7         0.000  
         0.000           0.000           0.000  
  14658152.143 6 -33554287.755 6        43.877 6     -1752.257 6         0.000  
         0.000           0.000           0.000  
  11183412.350 5 -46354497.741 5        42.799 5       565.773 5         0.000  
         0.000           0.000           0.000  
  16140080.936 5  -7309687.826 5        42.763 5      -216.028 5         0.000  
         0.000           0.000           0.000  
  13544770.829 6 -36499232.929 6        43.319 6     -1972.275 6         0.000  
         0.000           0.000           0.000  
  11350927.927 6 -39146139.730 6        45.624 6      2561.576 6         0.000  
         0.000           0.000           0.000  
  12075726.462 7 -28097328.131 7        48.062 7      -497.115 7         0.000  
         0.000           0.000           0.000  
 13 11 12  0 39 30.1030423  0  9G11G12G14G15G18G19G21G22G24
  16168117.007 4   -839741.596 4        37.859 4      3603.888 4         0.000  
         0.000           0.000           0.000  
  14702507.800 5  -6585742.831 5        40.264 5      4016.766 5         0.000  
         0.000           0.000           0.000  
  12601188.690 6 -26538559.030 6        45.963 6      3153.526 6         0.000  
         0.000           0.000           0.000  
  14658485.754 6 -33552535.503 6        43.834 6     -1751.981 6         0.000  
         0.000           0.000           0.000  
  11183304.547 6 -46355063.329 6        43.009 6       565.397 6         0.000  
         0.000           0.000           0.000  
  16140122.512 5  -7309471.453 5        42.602 5      -216.676 5         0.000  
         0.000           0.000           0.000  
  13545146.037 6 -36497260.662 6        43.025 6     -1972.164 6         0.000  
         0.000           0.000           0.000  
  11350440.589 6 -39148701.314 6        45.530 6      2561.406 6         0.000  
         0.000           0.000           0.000  
  12075821.102 7 -28096830.835 7        48.136 7      -497.676 7         0.000  
         0.000           0.000           0.000  
 13 11 12  0 39 31.1020397  0  9G11G12G14G15G18G19G21G22G24
  16167431.603 4   -843341.715 4        37.715 4      3603.591 4         0.000  
         0.000           0.000           0.000  
  14701744.043 5  -6589755.234 5        40.557 5      4016.408 5         0.000  
         0.000           0.000           0.000  
  12600589.180 6 -26541709.330 6        45.899 6      3153.508 6         0.000  
         0.000           0.000           0.000  
  14658818.934 6 -33550785.158 6        43.469 6     -1751.987 6         0.000  
         0.000           0.000           0.000  
  11183196.997 5 -46355628.098 5        42.660 5       565.356 5         0.000  
         0.000           0.000           0.000  
  16140164.059 5  -7309255.054 5        42.045 5      -216.978 5         0.000  
         0.000           0.000           0.000  
  13545520.743 6 -36495290.289 6        43.145 6     -1972.606 6         0.000  
         0.000           0.000           0.000  
  11349953.712 6 -39151260.149 6        45.567 6      2561.280 6         0.000  
         0.000           0.000           0.000  
  12075915.760 7 -28096333.660 7        48.149 7      -497.876 7         0.000  
         0.000           0.000           0.000  
 13 11 12  0 39 32.1030372  0  9G11G12G14G15G18G19G21G22G24
  16166745.302 4   -846948.746 4        38.432 4      3602.756 4         0.000  
         0.000           0.000           0.000  
  14700978.599 5  -6593775.577 5        40.626 5      4016.549 5         0.000  
         0.000           0.000           0.000  
  12599988.500 6 -26544865.852 6        45.997 6      3153.521 6         0.000  
         0.000           0.000           0.000  
  14659152.680 6 -33549031.450 6        43.348 6     -1751.834 6         0.000  
         0.000           0.000           0.000  
  11183089.430 6 -46356193.724 6        43.189 6       565.341 6         0.000  
         0.000           0.000           0.000  
  16140205.706 5  -7309037.926 5        42.321 5      -216.634 5         0.000  
         0.000           0.000           0.000  
  13545896.323 5 -36493315.876 5        42.995 5     -1972.613 5         0.000  
         0.000           0.000           0.000  
  11349465.837 6 -39153823.880 6        45.686 6      2561.068 6         0.000  
         0.000           0.000           0.000  
  12076010.769 7 -28095835.114 7        48.479 7      -498.192 7         0.000  
         0.000           0.000           0.000  
 13 11 12  0 39 33.1020346  0  9G11G12G14G15G18G19G21G22G24
  16166060.287 4   -850548.212 4        38.068 4      3602.601 4         0.000  
         0.000           0.000           0.000  
  14700214.763 5  -6597787.728 5        40.326 5      4015.965 5         0.000  
         0.000           0.000           0.000  
  12599389.048 6 -26548015.876 6        45.985 6      3152.980 6         0.000  
         0.000           0.000           0.000  
  14659485.503 5 -33547281.262 5        42.914 5     -1751.871 5         0.000  
         0.000           0.000           0.000  
  11182982.117 6 -46356757.832 6        43.787 6       564.342 6         0.000  
         0.000           0.000           0.000  
  16140247.538 5  -7308820.849 5        42.665 5      -217.272 5         0.000  
         0.000           0.000           0.000  
  13546271.169 6 -36491345.201 6        43.001 6     -1972.545 6         0.000  
         0.000           0.000           0.000  
  11348978.956 6 -39156382.188 6        45.783 6      2560.929 6         0.000  
         0.000           0.000           0.000  
  12076105.790 7 -28095337.091 7        48.365 7      -498.738 7         0.000  
         0.000           0.000           0.000  
 13 11 12  0 39 34.1030321  0  9G11G12G14G15G18G19G21G22G24
  16165374.169 4   -854154.476 4        39.205 4      3602.024 4         0.000  
         0.000           0.000           0.000  
  14699449.374 5  -6601807.724 5        40.428 5      4015.940 5         0.000  
         0.000           0.000           0.000  
  12598788.450 6 -26551172.009 6        45.915 6      3152.888 6         0.000  
         0.000           0.000           0.000  
  14659818.857 5 -33545527.601 5        42.859 5     -1751.961 5         0.000  
         0.000           0.000           0.000  
  11182874.685 6 -46357322.686 6        43.242 6       564.069 6         0.000  
         0.000           0.000           0.000  
  16140289.204 5  -7308602.957 5        42.856 5      -217.936 5         0.000  
         0.000           0.000           0.000  
  13546646.935 6 -36489370.373 6        43.492 6     -1973.050 6         0.000  
         0.000           0.000           0.000  
  11348491.221 6 -39158945.298 6        45.418 6      2560.479 6         0.000  
         0.000           0.000           0.000  
  12076201.051 7 -28094837.578 7        48.632 7      -499.353 7         0.000  
         0.000           0.000           0.000  
 13 11 12  0 39 35.1020295  0  9G11G12G14G15G18G19G21G22G24
  16164689.322 4   -857753.084 4        39.866 4      3601.891 4         0.000  
         0.000           0.000           0.000  
  14698685.719 4  -6605819.431 4        39.932 4      4015.460 4         0.000  
         0.000           0.000           0.000  
  12598189.118 6 -26554321.569 6        45.951 6      3152.687 6         0.000  
         0.000           0.000           0.000  
  14660151.633 5 -33543777.403 5        42.898 5     -1751.843 5         0.000  
         0.000           0.000           0.000  
  11182767.563 6 -46357885.959 6        43.374 6       563.514 6         0.000  
         0.000           0.000           0.000  
  16140330.647 5  -7308385.051 5        42.450 5      -218.271 5         0.000  
         0.000           0.000           0.000  
  13547022.022 6 -36487399.221 6        43.014 6     -1972.992 6         0.000  
         0.000           0.000           0.000  
  11348004.480 6 -39161502.905 6        45.356 6      2560.053 6         0.000  
         0.000           0.000           0.000  
  12076296.153 7 -28094338.511 7        48.337 7      -499.859 7         0.000  
         0.000           0.000           0.000  
 13 11 12  0 39 36.1030270  0  9G11G12G14G15G18G19G21G22G24
  16164003.073 4   -861358.550 4        38.824 4      3601.624 4         0.000  
         0.000           0.000           0.000  
  14697920.584 5  -6609839.048 5        40.270 5      4015.538 5         0.000  
         0.000           0.000           0.000  
  12597588.665 7 -26557477.269 7        46.147 7      3152.332 7         0.000  
         0.000           0.000           0.000  
  14660485.210 6 -33542023.775 6        43.063 6     -1751.984 6         0.000  
         0.000           0.000           0.000  
  11182660.335 6 -46358450.014 6        43.061 6       563.104 6         0.000  
         0.000           0.000           0.000  
  16140372.282 5  -7308166.366 5        41.880 5      -218.664 5         0.000  
         0.000           0.000           0.000  
  13547397.940 6 -36485423.963 6        43.438 6     -1973.177 6         0.000  
         0.000           0.000           0.000  
  11347516.808 6 -39164065.346 6        45.654 6      2559.692 6         0.000  
         0.000           0.000           0.000  
  12076391.367 7 -28093837.990 7        48.336 7      -500.328 7         0.000  
         0.000           0.000           0.000  
 13 11 12  0 39 37.1030244  0  9G11G12G14G15G18G19G21G22G24
  16163317.646 4   -864959.933 4        38.284 4      3600.904 4         0.000  
         0.000           0.000           0.000  
  14697156.432 5  -6613854.347 5        40.123 5      4015.094 5         0.000  
         0.000           0.000           0.000  
  12596988.866 7 -26560629.518 7        46.001 7      3152.051 7         0.000  
         0.000           0.000           0.000  
  14660818.574 6 -33540271.821 6        43.070 6     -1751.726 6         0.000  
         0.000           0.000           0.000  
  11182553.168 6 -46359013.012 6        43.416 6       562.699 6         0.000  
         0.000           0.000           0.000  
  16140413.923 5  -7307947.408 5        41.693 5      -219.209 5         0.000  
         0.000           0.000           0.000  
  13547773.572 6 -36483450.345 6        43.429 6     -1973.658 6         0.000  
         0.000           0.000           0.000  
  11347029.762 6 -39166624.808 6        45.380 6      2559.299 6         0.000  
         0.000           0.000           0.000  
  12076486.502 7 -28093337.359 7        48.059 7      -500.851 7         0.000  
         0.000           0.000           0.000  
 13 11 12  0 39 38.1030219  0  9G11G12G14G15G18G19G21G22G24
  16162632.032 4   -868560.830 4        38.114 4      3600.273 4         0.000  
         0.000           0.000           0.000  
  14696392.432 5  -6617869.345 5        40.453 5      4014.892 5         0.000  
         0.000           0.000           0.000  
  12596389.133 7 -26563781.451 7        46.133 7      3151.685 7         0.000  
         0.000           0.000           0.000  
  14661152.032 6 -33538519.764 6        43.397 6     -1751.868 6         0.000  
         0.000           0.000           0.000  
  11182446.024 6 -46359575.512 6        43.279 6       562.230 6         0.000  
         0.000           0.000           0.000  
  16140455.685 5  -7307727.925 5        41.952 5      -219.775 5         0.000  
         0.000           0.000           0.000  
  13548149.380 6 -36481476.403 6        43.058 6     -1973.902 6         0.000  
         0.000           0.000           0.000  
  11346542.887 6 -39169183.828 6        45.826 6      2558.842 6         0.000  
         0.000           0.000           0.000  
  12076581.718 7 -28092836.119 7        48.024 7      -501.513 7         0.000  
         0.000           0.000           0.000  
 13 11 12  0 39 39.1030193  0  9G11G12G14G15G18G19G21G22G24
  16161946.596 4   -872161.156 4        37.288 4      3600.517 4         0.000  
         0.000           0.000           0.000  
  14695628.332 4  -6621883.978 4        39.872 4      4014.194 4         0.000  
         0.000           0.000           0.000  
  12595789.495 7 -26566932.996 7        46.287 7      3151.057 7         0.000  
         0.000           0.000           0.000  
  14661485.707 6 -33536767.538 6        43.509 6     -1752.438 6         0.000  
         0.000           0.000           0.000  
  11182339.110 6 -46360137.432 6        43.510 6       561.233 6         0.000  
         0.000           0.000           0.000  
  16140497.546 5  -7307507.870 5        41.640 5      -220.680 5         0.000  
         0.000           0.000           0.000  
  13548525.212 6 -36479502.070 6        43.121 6     -1974.627 6         0.000  
         0.000           0.000           0.000  
  11346056.126 6 -39171742.332 6        45.701 6      2558.316 6         0.000  
         0.000           0.000           0.000  
  12076677.164 7 -28092334.214 7        48.167 7      -502.252 7         0.000  
         0.000           0.000           0.000  
 13 11 12  0 39 40.1030168  0  9G11G12G14G15G18G19G21G22G24
  16161261.334 3   -875760.881 3        36.965 3      3599.375 3         0.000  
         0.000           0.000           0.000  
  14694864.482 5  -6625898.240 5        40.632 5      4013.817 5         0.000  
         0.000           0.000           0.000  
  12595189.985 7 -26570084.144 7        46.365 7      3150.988 7         0.000  
         0.000           0.000           0.000  
  14661819.298 6 -33535015.156 6        43.690 6     -1752.646 6         0.000  
         0.000           0.000           0.000  
  11182232.273 6 -46360698.779 6        43.401 6       560.810 6         0.000  
         0.000           0.000           0.000  
  16140539.155 5  -7307287.228 5        41.438 5      -221.085 5         0.000  
         0.000           0.000           0.000  
  13548901.219 5 -36477527.327 5        42.953 5     -1974.699 5         0.000  
         0.000           0.000           0.000  
  11345569.406 6 -39174300.323 6        45.658 6      2557.806 6         0.000  
         0.000           0.000           0.000  
  12076772.842 7 -28091831.638 7        48.243 7      -502.908 7         0.000  
         0.000           0.000           0.000  
 13 11 12  0 39 41.1030142  0  9G11G12G14G15G18G19G21G22G24
  16160576.795 3   -879360.131 3        36.944 3      3599.271 3         0.000  
         0.000           0.000           0.000  
  14694100.659 5  -6629912.214 5        40.163 5      4013.942 5         0.000  
         0.000           0.000           0.000  
  12594590.470 7 -26573234.989 7        46.240 7      3150.648 7         0.000  
         0.000           0.000           0.000  
  14662152.738 6 -33533262.692 6        43.596 6     -1752.524 6         0.000  
         0.000           0.000           0.000  
  11182125.577 6 -46361259.618 6        43.580 6       560.658 6         0.000  
         0.000           0.000           0.000  
  16140581.025 5  -7307066.102 5        41.224 5      -221.380 5         0.000  
         0.000           0.000           0.000  
  13549277.155 6 -36475552.282 6        43.123 6     -1975.108 6         0.000  
         0.000           0.000           0.000  
  11345082.651 6 -39176857.902 6        45.618 6      2557.327 6         0.000  
         0.000           0.000           0.000  
  12076868.701 7 -28091328.471 7        48.210 7      -503.376 7         0.000  
         0.000           0.000           0.000  
 13 11 12  0 39 42.1020117  0  9G11G12G14G15G18G19G21G22G24
  16159892.726 4   -882955.281 4        37.385 4      3598.936 4         0.000  
         0.000           0.000           0.000  
  14693337.752 5  -6633921.880 5        40.455 5      4013.604 5         0.000  
         0.000           0.000           0.000  
  12593991.501 7 -26576382.365 7        46.174 7      3150.367 7         0.000  
         0.000           0.000           0.000  
  14662485.900 6 -33531511.879 6        43.534 6     -1752.603 6         0.000  
         0.000           0.000           0.000  
  11182019.321 6 -46361819.404 6        43.570 6       559.713 6         0.000  
         0.000           0.000           0.000  
  16140623.206 5  -7306844.684 5        41.694 5      -221.960 5         0.000  
         0.000           0.000           0.000  
  13549652.821 5 -36473578.875 5        42.717 5     -1975.734 5         0.000  
         0.000           0.000           0.000  
  11344596.406 6 -39179412.478 6        45.667 6      2557.056 6         0.000  
         0.000           0.000           0.000  
  12076964.613 7 -28090825.212 7        48.095 7      -504.263 7         0.000  
         0.000           0.000           0.000  
 13 11 12  0 39 43.1030091  0  9G11G12G14G15G18G19G21G22G24
  16159207.340 4   -886557.109 4        37.105 4      3598.571 4         0.000  
         0.000           0.000           0.000  
  14692573.242 5  -6637939.256 5        40.167 5      4013.127 5         0.000  
         0.000           0.000           0.000  
  12593391.546 7 -26579535.709 7        46.162 7      3149.921 7         0.000  
         0.000           0.000           0.000  
  14662819.742 6 -33529757.456 6        43.406 6     -1752.680 6         0.000  
         0.000           0.000           0.000  
  11181912.972 6 -46362379.785 6        43.702 6       559.776 6         0.000  
         0.000           0.000           0.000  
  16140665.515 5  -7306622.307 5        41.206 5      -222.351 5         0.000  
         0.000           0.000           0.000  
  13550029.329 6 -36471601.182 6        43.081 6     -1975.770 6         0.000  
         0.000           0.000           0.000  
  11344109.274 6 -39181971.711 6        45.489 6      2556.399 6         0.000  
         0.000           0.000           0.000  
  12077060.676 7 -28090320.315 7        47.985 7      -504.712 7         0.000  
         0.000           0.000           0.000  
 13 11 12  0 39 44.1020066  0  9G11G12G14G15G18G19G21G22G24
  16158523.109 4   -890151.235 4        37.202 4      3597.793 4         0.000  
         0.000           0.000           0.000  
  14691810.334 5  -6641948.306 5        40.007 5      4012.716 5         0.000  
         0.000           0.000           0.000  
  12592792.842 7 -26582682.445 7        46.431 7      3149.718 7         0.000  
         0.000           0.000           0.000  
  14663152.741 6 -33528006.449 6        43.145 6     -1752.592 6         0.000  
         0.000           0.000           0.000  
  11181806.799 6 -46362938.546 6        43.363 6       558.776 6         0.000  
         0.000           0.000           0.000  
  16140707.788 5  -7306399.880 5        41.075 5      -222.855 5         0.000  
         0.000           0.000           0.000  
  13550405.036 6 -36469627.117 6        43.077 6     -1976.181 6         0.000  
         0.000           0.000           0.000  
  11343623.187 6 -39184525.400 6        45.550 6      2556.085 6         0.000  
         0.000           0.000           0.000  
  12077156.489 7 -28089815.823 7        47.932 7      -505.334 7         0.000  
         0.000           0.000           0.000  
 13 11 12  0 39 45.1030041  0  9G11G12G14G15G18G19G21G22G24
  16157837.799 4   -893751.994 4        37.393 4      3596.539 4         0.000  
         0.000           0.000           0.000  
  14691045.842 5  -6645965.026 5        40.497 5      4012.546 5         0.000  
         0.000           0.000           0.000  
  12592193.054 7 -26585835.100 7        46.526 7      3149.161 7         0.000  
         0.000           0.000           0.000  
  14663486.572 6 -33526251.786 6        43.325 6     -1753.085 6         0.000  
         0.000           0.000           0.000  
  11181700.475 6 -46363497.855 6        43.722 6       558.219 6         0.000  
         0.000           0.000           0.000  
  16140749.862 5  -7306176.420 5        40.668 5      -223.470 5         0.000  
         0.000           0.000           0.000  
  13550781.673 6 -36467648.715 6        43.040 6     -1976.356 6         0.000  
         0.000           0.000           0.000  
  11343136.330 6 -39187083.710 6        45.658 6      2555.524 6         0.000  
         0.000           0.000           0.000  
  12077252.513 7 -28089309.638 7        47.694 7      -505.815 7         0.000  
         0.000           0.000           0.000  
 13 11 12  0 39 46.1040015  0  9G11G12G14G15G18G19G21G22G24
  16157152.644 3   -897352.313 3        36.820 3      3596.512 3         0.000  
         0.000           0.000           0.000  
  14690281.585 5  -6649981.483 5        40.013 5      4012.366 5         0.000  
         0.000           0.000           0.000  
  12591593.380 7 -26588987.495 7        46.496 7      3149.147 7         0.000  
         0.000           0.000           0.000  
  14663820.204 6 -33524497.071 6        43.420 6     -1752.937 6         0.000  
         0.000           0.000           0.000  
  11181594.171 6 -46364056.715 6        43.625 6       558.080 6         0.000  
         0.000           0.000           0.000  
  16140791.998 5  -7305952.521 5        40.616 5      -223.720 5         0.000  
         0.000           0.000           0.000  
  13551158.199 6 -36465670.044 6        43.057 6     -1976.734 6         0.000  
         0.000           0.000           0.000  
  11342649.579 6 -39189641.639 6        45.560 6      2555.448 6         0.000  
         0.000           0.000           0.000  
  12077348.699 7 -28088802.898 7        47.903 7      -506.437 7         0.000  
         0.000           0.000           0.000  
 13 11 12  0 39 47.1029990  0  9G11G12G14G15G18G19G21G22G24
  16156469.055 3   -900945.016 3        36.545 3      3595.630 3         0.000  
         0.000           0.000           0.000  
  14689518.912 4  -6653989.707 4        39.891 4      4011.830 4         0.000  
         0.000           0.000           0.000  
  12590994.866 7 -26592133.356 7        46.560 7      3148.794 7         0.000  
         0.000           0.000           0.000  
  14664153.458 6 -33522745.857 6        43.685 6     -1753.073 6         0.000  
         0.000           0.000           0.000  
  11181488.026 6 -46364614.035 6        43.559 6       557.730 6         0.000  
         0.000           0.000           0.000  
  16140834.083 5  -7305728.651 5        40.417 5      -224.320 5         0.000  
         0.000           0.000           0.000  
  13551534.015 6 -36463695.098 6        43.236 6     -1976.802 6         0.000  
         0.000           0.000           0.000  
  11342163.866 6 -39192194.093 6        45.637 6      2554.960 6         0.000  
         0.000           0.000           0.000  
  12077444.934 7 -28088296.649 7        48.150 7      -506.934 7         0.000  
         0.000           0.000           0.000  
 13 11 12  0 39 48.1039964  0  9G11G12G14G15G18G19G21G22G24
  16155784.032 3   -904544.458 3        36.184 3      3596.361 3         0.000  
         0.000           0.000           0.000  
  14688754.740 5  -6658005.685 5        40.074 5      4012.099 5         0.000  
         0.000           0.000           0.000  
  12590395.305 7 -26595285.234 7        46.420 7      3148.631 7         0.000  
         0.000           0.000           0.000  
  14664487.461 6 -33520991.086 6        43.391 6     -1753.051 6         0.000  
         0.000           0.000           0.000  
  11181381.861 6 -46365172.010 6        43.174 6       557.385 6         0.000  
         0.000           0.000           0.000  
  16140876.551 5  -7305503.861 5        40.347 5      -224.580 5         0.000  
         0.000           0.000           0.000  
  13551910.609 5 -36461715.895 5        42.962 5     -1977.270 5         0.000  
         0.000           0.000           0.000  
  11341677.405 6 -39194751.253 6        45.385 6      2554.284 6         0.000  
         0.000           0.000           0.000  
  12077541.678 7 -28087788.821 7        48.301 7      -507.474 7         0.000  
         0.000           0.000           0.000  
 13 11 12  0 39 49.1029939  0  9G11G12G14G15G18G19G21G22G24
  16155100.333 3   -908136.348 3        35.254 3      3595.411 3         0.000  
         0.000           0.000           0.000  
  14687992.044 5  -6662013.488 5        40.316 5      4011.718 5         0.000  
         0.000           0.000           0.000  
  12589796.960 7 -26598430.642 7        46.434 7      3148.508 7         0.000  
         0.000           0.000           0.000  
  14664820.659 6 -33519239.864 6        43.812 6     -1752.864 6         0.000  
         0.000           0.000           0.000  
  11181275.887 6 -46365728.516 6        43.369 6       557.005 6         0.000  
         0.000           0.000           0.000  
  16140919.030 5  -7305279.149 5        40.513 5      -225.411 5         0.000  
         0.000           0.000           0.000  
  13552286.352 6 -36459740.472 6        43.021 6     -1977.567 6         0.000  
         0.000           0.000           0.000  
  11341191.912 6 -39197303.015 6        45.716 6      2554.127 6         0.000  
         0.000           0.000           0.000  
  12077638.490 7 -28087281.564 7        48.366 7      -508.047 7         0.000  
         0.000           0.000           0.000  
 13 11 12  0 39 50.1029913  0  9G11G12G14G15G18G19G21G22G24
  16154415.570 3   -911731.469 3        35.613 3      3594.926 3         0.000  
         0.000           0.000           0.000  
  14687228.757 5  -6666025.141 5        40.680 5      4011.500 5         0.000  
         0.000           0.000           0.000  
  12589198.021 7 -26601579.026 7        46.327 7      3148.299 7         0.000  
         0.000           0.000           0.000  
  14665154.517 6 -33517486.954 6        43.282 6     -1752.778 6         0.000  
         0.000           0.000           0.000  
  11181169.775 6 -46366285.204 6        43.342 6       556.503 6         0.000  
         0.000           0.000           0.000  
  16140961.241 5  -7305053.868 5        40.224 5      -225.913 5         0.000  
         0.000           0.000           0.000  
  13552662.500 5 -36457762.889 5        42.826 5     -1977.681 5         0.000  
         0.000           0.000           0.000  
  11340705.918 6 -39199857.036 6        45.423 6      2553.766 6         0.000  
         0.000           0.000           0.000  
  12077735.373 7 -28086773.338 7        48.262 7      -508.364 7         0.000  
         0.000           0.000           0.000  
 13 11 12  0 39 51.1029888  0  9G11G12G14G15G18G19G21G22G24
  16153731.231 3   -915326.252 3        36.722 3      3594.699 3         0.000  
         0.000           0.000           0.000  
  14686465.591 5  -6670036.643 5        40.176 5      4011.262 5         0.000  
         0.000           0.000           0.000  
  12588599.023 7 -26604727.269 7        46.346 7      3148.229 7         0.000  
         0.000           0.000           0.000  
  14665488.291 6 -33515734.117 6        43.661 6     -1752.858 6         0.000  
         0.000           0.000           0.000  
  11181063.692 6 -46366841.568 6        43.495 6       556.149 6         0.000  
         0.000           0.000           0.000  
  16141003.431 5  -7304828.237 5        40.016 5      -225.896 5         0.000  
         0.000           0.000           0.000  
  13553038.500 5 -36455785.145 5        42.683 5     -1977.672 5         0.000  
         0.000           0.000           0.000  
  11340219.970 6 -39202410.794 6        45.529 6      2553.712 6         0.000  
         0.000           0.000           0.000  
  12077832.170 7 -28086264.684 7        47.929 7      -508.736 7         0.000  
         0.000           0.000           0.000  
 13 11 12  0 39 52.1029862  0  9G11G12G14G15G18G19G21G22G24
  16153047.057 3   -918920.641 3        36.646 3      3594.586 3         0.000  
         0.000           0.000           0.000  
  14685702.546 5  -6674047.988 5        40.390 5      4011.178 5         0.000  
         0.000           0.000           0.000  
  12588000.032 7 -26607875.308 7        46.470 7      3147.974 7         0.000  
         0.000           0.000           0.000  
  14665822.047 6 -33513981.309 6        43.659 6     -1752.764 6         0.000  
         0.000           0.000           0.000  
  11180957.642 6 -46367397.541 6        43.137 6       555.860 6         0.000  
         0.000           0.000           0.000  
  16141045.746 4  -7304602.229 4        39.718 4      -226.442 4         0.000  
         0.000           0.000           0.000  
  13553414.601 5 -36453807.204 5        42.903 5     -1978.061 5         0.000  
         0.000           0.000           0.000  
  11339734.074 6 -39204964.236 6        45.305 6      2553.117 6         0.000  
         0.000           0.000           0.000  
  12077928.927 7 -28085755.524 7        47.881 7      -509.500 7         0.000  
         0.000           0.000           0.000  
 13 11 12  0 39 53.1019837  0  9G11G12G14G15G18G19G21G22G24
  16152363.828 3   -922510.994 3        36.158 3      3594.124 3         0.000  
         0.000           0.000           0.000  
  14684940.084 4  -6678055.067 4        39.891 4      4010.819 4         0.000  
         0.000           0.000           0.000  
  12587401.572 7 -26611019.931 7        46.540 7      3147.667 7         0.000  
         0.000           0.000           0.000  
  14666155.318 6 -33512230.218 6        43.762 6     -1752.820 6         0.000  
         0.000           0.000           0.000  
  11180851.869 6 -46367952.501 6        43.366 6       555.197 6         0.000  
         0.000           0.000           0.000  
  16141087.836 4  -7304376.013 4        39.074 4      -226.824 4         0.000  
         0.000           0.000           0.000  
  13553790.154 5 -36451830.977 5        42.806 5     -1978.419 5         0.000  
         0.000           0.000           0.000  
  11339248.613 6 -39207514.745 6        45.428 6      2552.905 6         0.000  
         0.000           0.000           0.000  
  12078025.625 7 -28085246.337 7        47.995 7      -509.956 7         0.000  
         0.000           0.000           0.000  
 13 11 12  0 39 54.1029811  0  9G11G12G14G15G18G19G21G22G24
  16151679.645 3   -926108.179 3        36.277 3      3593.045 3         0.000  
         0.000           0.000           0.000  
  14684175.886 4  -6682070.015 4        39.667 4      4010.759 4         0.000  
         0.000           0.000           0.000  
  12586802.026 7 -26614170.673 7        46.422 7      3147.494 7         0.000  
         0.000           0.000           0.000  
  14666489.336 6 -33510475.674 6        44.031 6     -1752.666 6         0.000  
         0.000           0.000           0.000  
  11180746.103 6 -46368508.229 6        43.280 6       554.869 6         0.000  
         0.000           0.000           0.000  
  16141130.306 4  -7304148.949 4        39.559 4      -226.635 4         0.000  
         0.000           0.000           0.000  
  13554166.742 5 -36449850.598 5        42.986 5     -1978.365 5         0.000  
         0.000           0.000           0.000  
  11338762.307 6 -39210070.045 6        45.396 6      2552.576 6         0.000  
         0.000           0.000           0.000  
  12078122.684 7 -28084735.674 7        47.982 7      -510.355 7         0.000  
         0.000           0.000           0.000  
 13 11 12  0 39 55.1019786  0  9G11G12G14G15G18G19G21G22G24
  16150996.351 3   -929697.741 3        36.022 3      3593.078 3         0.000  
         0.000           0.000           0.000  
  14683413.211 4  -6686076.706 4        39.841 4      4010.480 4         0.000  
         0.000           0.000           0.000  
  12586203.792 7 -26617314.869 7        46.446 7      3147.285 7         0.000  
         0.000           0.000           0.000  
  14666822.861 6 -33508724.622 6        43.995 6     -1752.697 6         0.000  
         0.000           0.000           0.000  
  11180640.644 6 -46369062.402 6        43.298 6       554.458 6         0.000  
         0.000           0.000           0.000  
  16141172.929 4  -7303921.916 4        39.849 4      -227.380 4         0.000  
         0.000           0.000           0.000  
  13554542.657 5 -36447873.930 5        42.705 5     -1978.922 5         0.000  
         0.000           0.000           0.000  
  11338277.181 6 -39212619.898 6        45.354 6      2552.065 6         0.000  
         0.000           0.000           0.000  
  12078219.726 7 -28084225.482 7        47.964 7      -511.087 7         0.000  
         0.000           0.000           0.000  
 13 11 12  0 39 56.1029760  0  9G11G12G14G15G18G19G21G22G24
  16150312.054 3   -933293.885 3        35.619 3      3591.963 3         0.000  
         0.000           0.000           0.000  
  14682649.211 5  -6690091.019 5        40.189 5      4010.280 5         0.000  
         0.000           0.000           0.000  
  12585604.467 7 -26620464.933 7        46.426 7      3146.653 7         0.000  
         0.000           0.000           0.000  
  14667157.125 6 -33506969.850 6        43.673 6     -1753.016 6         0.000  
         0.000           0.000           0.000  
  11180535.001 6 -46369617.076 6        43.542 6       553.652 6         0.000  
         0.000           0.000           0.000  
  16141216.149 5  -7303693.817 5        40.276 5      -227.927 5         0.000  
         0.000           0.000           0.000  
  13554919.462 5 -36445892.869 5        42.507 5     -1979.840 5         0.000  
         0.000           0.000           0.000  
  11337791.244 6 -39215174.287 6        45.467 6      2551.519 6         0.000  
         0.000           0.000           0.000  
  12078317.067 7 -28083713.554 7        48.133 7      -511.686 7         0.000  
         0.000           0.000           0.000  
 13 11 12  0 39 57.1039735  0  9G11G12G14G15G18G19G21G22G24
  16149627.991 3   -936889.359 3        34.672 3      3591.956 3         0.000  
         0.000           0.000           0.000  
  14681885.352 4  -6694104.844 4        39.992 4      4009.758 4         0.000  
         0.000           0.000           0.000  
  12585005.153 7 -26623614.528 7        46.344 7      3146.384 7         0.000  
         0.000           0.000           0.000  
  14667491.352 6 -33505214.836 6        43.553 6     -1753.625 6         0.000  
         0.000           0.000           0.000  
  11180429.522 6 -46370171.090 6        43.579 6       553.211 6         0.000  
         0.000           0.000           0.000  
  16141259.465 4  -7303465.060 4        39.879 4      -228.963 4         0.000  
         0.000           0.000           0.000  
  13555296.319 5 -36443911.331 5        42.123 5     -1979.487 5         0.000  
         0.000           0.000           0.000  
  11337305.427 6 -39217728.087 6        45.555 6      2550.883 6         0.000  
         0.000           0.000           0.000  
  12078414.752 7 -28083200.888 7        48.311 7      -512.326 7         0.000  
         0.000           0.000           0.000  
 13 11 12  0 39 58.1029710  0  9G11G12G14G15G18G19G21G22G24
  16148945.088 3   -940477.130 3        35.257 3      3591.384 3         0.000  
         0.000           0.000           0.000  
  14681122.960 4  -6698110.328 4        39.653 4      4009.279 4         0.000  
         0.000           0.000           0.000  
  12584407.124 7 -26626757.480 7        46.294 7      3145.833 7         0.000  
         0.000           0.000           0.000  
  14667824.677 6 -33503463.194 6        43.578 6     -1753.430 6         0.000  
         0.000           0.000           0.000  
  11180324.351 6 -46370723.444 6        43.457 6       552.645 6         0.000  
         0.000           0.000           0.000  
  16141302.541 4  -7303236.217 4        39.656 4      -229.628 4         0.000  
         0.000           0.000           0.000  
  13555672.378 5 -36441933.379 5        42.476 5     -1980.006 5         0.000  
         0.000           0.000           0.000  
  11336820.661 6 -39220276.318 6        45.423 6      2550.851 6         0.000  
         0.000           0.000           0.000  
  12078512.460 7 -28082688.603 7        48.324 7      -512.987 7         0.000  
         0.000           0.000           0.000  
 13 11 12  0 39 59.1039684  0  9G11G12G14G15G18G19G21G22G24
  16148261.174 3   -944071.678 3        35.625 3      3590.899 3         0.000  
         0.000           0.000           0.000  
  14680359.347 5  -6702123.632 5        40.319 5      4009.151 5         0.000  
         0.000           0.000           0.000  
  12583807.879 7 -26629906.520 7        46.224 7      3145.985 7         0.000  
         0.000           0.000           0.000  
  14668158.672 6 -33501708.064 6        43.326 6     -1753.136 6         0.000  
         0.000           0.000           0.000  
  11180219.205 6 -46371276.517 6        43.685 6       552.149 6         0.000  
         0.000           0.000           0.000  
  16141345.801 4  -7303006.535 4        39.646 4      -229.860 4         0.000  
         0.000           0.000           0.000  
  13556049.339 5 -36439951.266 5        42.489 5     -1980.143 5         0.000  
         0.000           0.000           0.000  
  11336334.921 6 -39222829.311 6        45.607 6      2550.346 6         0.000  
         0.000           0.000           0.000  
  12078610.410 7 -28082174.792 7        48.296 7      -513.438 7         0.000  
         0.000           0.000           0.000  
 13 11 12  0 40  0.1029659  0  9G11G12G14G15G18G19G21G22G24
  16147578.387 3   -947658.674 3        35.180 3      3590.262 3         0.000  
         0.000           0.000           0.000  
  14679597.293 5  -6706128.743 5        40.230 5      4008.783 5         0.000  
         0.000           0.000           0.000  
  12583209.633 7 -26633049.069 7        46.575 7      3145.623 7         0.000  
         0.000           0.000           0.000  
  14668491.794 6 -33499956.458 6        43.627 6     -1753.400 6         0.000  
         0.000           0.000           0.000  
  11180114.346 6 -46371828.088 6        43.279 6       552.127 6         0.000  
         0.000           0.000           0.000  
  16141388.706 4  -7302776.913 4        38.700 4      -229.965 4         0.000  
         0.000           0.000           0.000  
  13556425.900 5 -36437972.902 5        42.339 5     -1980.547 5         0.000  
         0.000           0.000           0.000  
  11335850.143 6 -39225376.891 6        45.561 6      2550.134 6         0.000  
         0.000           0.000           0.000  
  12078708.169 7 -28081661.517 7        48.243 7      -514.107 7         0.000  
         0.000           0.000           0.000  
 13 11 12  0 40  1.1029633  0  9G11G12G14G15G18G19G21G22G24
  16146895.028 3   -951248.805 3        35.362 3      3590.467 3         0.000  
         0.000           0.000           0.000  
  14678834.518 5  -6710137.601 5        40.148 5      4008.635 5         0.000  
         0.000           0.000           0.000  
  12582610.956 7 -26636194.510 7        46.242 7      3145.305 7         0.000  
         0.000           0.000           0.000  
  14668825.365 6 -33498203.067 6        43.145 6     -1753.259 6         0.000  
         0.000           0.000           0.000  
  11180009.343 6 -46372379.760 6        43.125 6       551.447 6         0.000  
         0.000           0.000           0.000  
  16141431.633 4  -7302546.601 4        39.000 4      -230.407 4         0.000  
         0.000           0.000           0.000  
  13556802.698 5 -36435992.289 5        42.584 5     -1980.846 5         0.000  
         0.000           0.000           0.000  
  11335364.891 6 -39227926.625 6        45.212 6      2549.424 6         0.000  
         0.000           0.000           0.000  
  12078806.000 7 -28081147.175 7        48.141 7      -514.705 7         0.000  
         0.000           0.000           0.000  
 13 11 12  0 40  2.1029608  0  9G11G12G14G15G18G19G21G22G24
  16146211.691 3   -954838.398 3        35.801 3      3588.760 3         0.000  
         0.000           0.000           0.000  
  14678071.980 5  -6714146.171 5        40.668 5      4008.348 5         0.000  
         0.000           0.000           0.000  
  12582012.446 7 -26639339.621 7        46.218 7      3144.919 7         0.000  
         0.000           0.000           0.000  
  14669158.926 6 -33496449.573 6        43.765 6     -1753.618 6         0.000  
         0.000           0.000           0.000  
  11179904.410 6 -46372930.944 6        43.521 6       551.035 6         0.000  
         0.000           0.000           0.000  
  16141474.762 4  -7302315.793 4        38.337 4      -231.269 4         0.000  
         0.000           0.000           0.000  
  13557179.602 5 -36434011.340 5        42.574 5     -1981.036 5         0.000  
         0.000           0.000           0.000  
  11334879.749 6 -39230475.906 6        45.575 6      2549.123 6         0.000  
         0.000           0.000           0.000  
  12078903.863 7 -28080632.220 7        48.185 7      -515.235 7         0.000  
         0.000           0.000           0.000  
 13 11 12  0 40  3.1029582  0  9G11G12G14G15G18G19G21G22G24
  16145528.821 3   -958427.321 3        36.121 3      3588.584 3         0.000  
         0.000           0.000           0.000  
  14677309.488 5  -6718154.237 5        40.104 5      4007.786 5         0.000  
         0.000           0.000           0.000  
  12581414.049 7 -26642484.226 7        46.413 7      3144.385 7         0.000  
         0.000           0.000           0.000  
  14669492.487 6 -33494695.793 6        43.684 6     -1753.902 6         0.000  
         0.000           0.000           0.000  
  11179799.503 6 -46373481.410 6        43.136 6       550.418 6         0.000  
         0.000           0.000           0.000  
  16141518.136 4  -7302084.280 4        38.973 4      -232.025 4         0.000  
         0.000           0.000           0.000  
  13557556.638 5 -36432029.883 5        42.755 5     -1981.581 5         0.000  
         0.000           0.000           0.000  
  11334394.706 6 -39233024.574 6        45.548 6      2548.305 6         0.000  
         0.000           0.000           0.000  
  12079001.900 7 -28080116.481 7        48.073 7      -516.033 7         0.000  
         0.000           0.000           0.000  
 13 11 12  0 40  4.1029557  0  9G11G12G14G15G18G19G21G22G24
  16144846.007 3   -962015.688 3        34.527 3      3587.932 3         0.000  
         0.000           0.000           0.000  
  14676546.818 5  -6722161.971 5        40.921 5      4007.769 5         0.000  
         0.000           0.000           0.000  
  12580815.837 7 -26645628.495 7        46.505 7      3144.046 7         0.000  
         0.000           0.000           0.000  
  14669826.186 6 -33492941.900 6        43.537 6     -1753.778 6         0.000  
         0.000           0.000           0.000  
  11179694.738 6 -46374031.353 6        43.458 6       549.666 6         0.000  
         0.000           0.000           0.000  
  16141561.876 4  -7301852.251 4        38.734 4      -232.225 4         0.000  
         0.000           0.000           0.000  
  13557934.151 5 -36430048.090 5        42.906 5     -1982.003 5         0.000  
         0.000           0.000           0.000  
  11333909.757 6 -39235572.773 6        45.695 6      2548.109 6         0.000  
         0.000           0.000           0.000  
  12079100.041 7 -28079600.107 7        48.397 7      -516.684 7         0.000  
         0.000           0.000           0.000  
 13 11 12  0 40  5.1029531  0  9G11G12G14G15G18G19G21G22G24
  16144163.437 3   -965603.772 3        34.676 3      3589.139 3         0.000  
         0.000           0.000           0.000  
  14675784.291 5  -6726169.603 5        40.392 5      4007.516 5         0.000  
         0.000           0.000           0.000  
  12580217.567 7 -26648772.635 7        46.618 7      3144.101 7         0.000  
         0.000           0.000           0.000  
  14670160.032 6 -33491188.111 6        43.866 6     -1753.786 6         0.000  
         0.000           0.000           0.000  
  11179590.124 6 -46374580.999 6        43.665 6       549.466 6         0.000  
         0.000           0.000           0.000  
  16141605.746 4  -7301619.909 4        39.132 4      -232.785 4         0.000  
         0.000           0.000           0.000  
  13558311.504 5 -36428066.157 5        42.860 5     -1981.910 5         0.000  
         0.000           0.000           0.000  
  11333424.924 6 -39238120.730 6        45.483 6      2548.073 6         0.000  
         0.000           0.000           0.000  
  12079198.408 7 -28079083.338 7        48.274 7      -517.001 7         0.000  
         0.000           0.000           0.000  
 13 11 12  0 40  6.1039506  0  9G11G12G14G15G18G19G21G22G24
  16143479.557 3   -969195.105 3        34.277 3      3587.395 3         0.000  
         0.000           0.000           0.000  
  14675021.020 4  -6730181.117 4        39.985 4      4007.756 4         0.000  
         0.000           0.000           0.000  
  12579618.680 7 -26651919.776 7        46.650 7      3143.858 7         0.000  
         0.000           0.000           0.000  
  14670494.195 6 -33489432.647 6        43.973 6     -1753.817 6         0.000  
         0.000           0.000           0.000  
  11179485.619 6 -46375130.841 6        43.892 6       549.224 6         0.000  
         0.000           0.000           0.000  
  16141649.654 4  -7301387.011 4        38.513 4      -233.228 4         0.000  
         0.000           0.000           0.000  
  13558689.369 5 -36426082.093 5        42.437 5     -1982.218 5         0.000  
         0.000           0.000           0.000  
  11332939.612 6 -39240670.965 6        45.669 6      2547.278 6         0.000  
         0.000           0.000           0.000  
  12079297.031 7 -28078565.617 7        48.236 7      -517.427 7         0.000  
         0.000           0.000           0.000  
 13 11 12  0 40  7.1029481  0  9G11G12G14G15G18G19G21G22G24
  16142796.761 3   -972778.922 3        34.186 3      3587.336 3         0.000  
         0.000           0.000           0.000  
  14674259.000 5  -6734184.448 5        40.074 5      4007.539 5         0.000  
         0.000           0.000           0.000  
  12579020.973 7 -26655060.443 7        46.302 7      3143.623 7         0.000  
         0.000           0.000           0.000  
  14670827.715 6 -33487680.728 6        43.931 6     -1753.579 6         0.000  
         0.000           0.000           0.000  
  11179381.516 6 -46375679.234 6        44.203 6       548.851 6         0.000  
         0.000           0.000           0.000  
  16141693.296 4  -7301154.207 4        38.167 4      -233.158 4         0.000  
         0.000           0.000           0.000  
  13559066.511 5 -36424101.802 5        42.936 5     -1982.741 5         0.000  
         0.000           0.000           0.000  
  11332455.391 6 -39243215.798 6        45.664 6      2547.085 6         0.000  
         0.000           0.000           0.000  
  12079395.549 7 -28078048.451 7        48.374 7      -517.914 7         0.000  
         0.000           0.000           0.000  
 13 11 12  0 40  8.1039455  0  9G11G12G14G15G18G19G21G22G24
  16142113.477 3   -976369.493 3        34.390 3      3586.677 3         0.000  
         0.000           0.000           0.000  
  14673495.411 4  -6738195.581 4        39.967 4      4006.537 4         0.000  
         0.000           0.000           0.000  
  12578421.980 7 -26658207.191 7        46.323 7      3143.566 7         0.000  
         0.000           0.000           0.000  
  14671161.836 6 -33485925.322 6        43.591 6     -1753.571 6         0.000  
         0.000           0.000           0.000  
  11179277.128 6 -46376228.317 6        43.729 6       548.658 6         0.000  
         0.000           0.000           0.000  
  16141736.937 4  -7300920.525 4        37.926 4      -233.531 4         0.000  
         0.000           0.000           0.000  
  13559444.463 5 -36422117.338 5        42.977 5     -1982.459 5         0.000  
         0.000           0.000           0.000  
  11331970.391 6 -39245765.395 6        45.547 6      2546.942 6         0.000  
         0.000           0.000           0.000  
  12079494.282 7 -28077529.752 7        48.201 7      -518.296 7         0.000  
         0.000           0.000           0.000  
 13 11 12  0 40  9.1029430  0  9G11G12G14G15G18G19G21G22G24
  16141432.007 3   -979952.582 3        34.548 3      3586.815 3         0.000  
         0.000           0.000           0.000  
  14672733.467 5  -6742198.575 5        40.117 5      4006.530 5         0.000  
         0.000           0.000           0.000  
  12577824.299 7 -26661347.528 7        46.483 7      3143.425 7         0.000  
         0.000           0.000           0.000  
  14671495.361 6 -33484173.525 6        44.008 6     -1753.440 6         0.000  
         0.000           0.000           0.000  
  11179173.049 6 -46376775.970 6        43.571 6       547.729 6         0.000  
         0.000           0.000           0.000  
  16141781.274 4  -7300687.006 4        38.997 4      -233.765 4         0.000  
         0.000           0.000           0.000  
  13559821.835 5 -36420136.697 5        42.924 5     -1982.678 5         0.000  
         0.000           0.000           0.000  
  11331486.244 6 -39248309.655 6        45.566 6      2546.866 6         0.000  
         0.000           0.000           0.000  
  12079592.892 7 -28077011.669 7        48.150 7      -518.795 7         0.000  
         0.000           0.000           0.000  
 13 11 12  0 40 10.1039404  0  9G11G12G14G15G18G19G21G22G24
  16140749.173 3   -983542.541 3        35.731 3      3585.776 3         0.000  
         0.000           0.000           0.000  
  14671969.996 4  -6746209.524 4        39.931 4      4006.355 4         0.000  
         0.000           0.000           0.000  
  12577225.509 7 -26664494.050 7        46.444 7      3143.219 7         0.000  
         0.000           0.000           0.000  
  14671829.354 6 -33482418.337 6        43.262 6     -1753.557 6         0.000  
         0.000           0.000           0.000  
  11179068.911 6 -46377324.466 6        43.728 6       547.863 6         0.000  
         0.000           0.000           0.000  
  16141825.809 4  -7300452.749 4        38.623 4      -234.409 4         0.000  
         0.000           0.000           0.000  
  13560199.990 6 -36418151.989 6        43.376 6     -1982.640 6         0.000  
         0.000           0.000           0.000  
  11331001.287 6 -39250858.774 6        45.539 6      2546.348 6         0.000  
         0.000           0.000           0.000  
  12079691.660 7 -28076492.172 7        48.076 7      -519.335 7         0.000  
         0.000           0.000           0.000  
 13 11 12  0 40 11.1029379  0  9G11G12G14G15G18G19G21G22G24
  16140067.939 3   -987124.938 3        36.209 3      3585.490 3         0.000  
         0.000           0.000           0.000  
  14671207.853 5  -6750212.272 5        40.280 5      4006.540 5         0.000  
         0.000           0.000           0.000  
  12576627.929 7 -26667634.078 7        46.380 7      3142.912 7         0.000  
         0.000           0.000           0.000  
  14672162.602 6 -33480666.679 6        43.230 6     -1753.422 6         0.000  
         0.000           0.000           0.000  
  11178965.034 6 -46377871.450 6        43.794 6       547.018 6         0.000  
         0.000           0.000           0.000  
  16141870.647 4  -7300218.547 4        39.311 4      -234.777 4         0.000  
         0.000           0.000           0.000  
  13560577.335 6 -36416171.031 6        43.123 6     -1983.366 6         0.000  
         0.000           0.000           0.000  
  11330517.280 6 -39253402.480 6        45.515 6      2545.929 6         0.000  
         0.000           0.000           0.000  
  12079790.372 7 -28075973.217 7        48.186 7      -519.727 7         0.000  
         0.000           0.000           0.000  
 13 11 12  0 40 12.1029353  0  9G11G12G14G15G18G19G21G22G24
  16139385.868 3   -990710.508 3        36.441 3      3585.673 3         0.000  
         0.000           0.000           0.000  
  14670444.905 5  -6754218.801 5        40.510 5      4006.556 5         0.000  
         0.000           0.000           0.000  
  12576029.880 7 -26670777.020 7        46.516 7      3143.022 7         0.000  
         0.000           0.000           0.000  
  14672496.120 6 -33478913.260 6        43.180 6     -1753.269 6         0.000  
         0.000           0.000           0.000  
  11178861.052 6 -46378418.564 6        44.154 6       546.896 6         0.000  
         0.000           0.000           0.000  
  16141915.456 4  -7299983.694 4        39.113 4      -235.023 4         0.000  
         0.000           0.000           0.000  
  13560955.120 5 -36414187.847 5        42.932 5     -1983.369 5         0.000  
         0.000           0.000           0.000  
  11330032.764 6 -39255948.376 6        45.298 6      2545.689 6         0.000  
         0.000           0.000           0.000  
  12079889.367 7 -28075453.228 7        48.345 7      -520.183 7         0.000  
         0.000           0.000           0.000  
 13 11 12  0 40 13.1029328  0  9G11G12G14G15G18G19G21G22G24
  16138704.191 3   -994295.605 3        35.949 3      3584.048 3         0.000  
         0.000           0.000           0.000  
  14669682.002 5  -6758225.093 5        40.157 5      4006.326 5         0.000  
         0.000           0.000           0.000  
  12575431.852 7 -26673919.689 7        46.368 7      3142.651 7         0.000  
         0.000           0.000           0.000  
  14672829.363 5 -33477159.787 5        42.902 5     -1753.636 5         0.000  
         0.000           0.000           0.000  
  11178757.151 6 -46378965.210 6        43.969 6       546.458 6         0.000  
         0.000           0.000           0.000  
  16141960.427 4  -7299748.398 4        38.576 4      -235.585 4         0.000  
         0.000           0.000           0.000  
  13561332.797 5 -36412204.398 5        42.824 5     -1983.738 5         0.000  
         0.000           0.000           0.000  
  11329548.234 6 -39258493.879 6        45.765 6      2545.073 6         0.000  
         0.000           0.000           0.000  
  12079988.554 7 -28074932.682 7        48.451 7      -520.784 7         0.000  
         0.000           0.000           0.000  
 13 11 12  0 40 14.1029302  0  9G11G12G14G15G18G19G21G22G24
  16138022.328 3   -997880.295 3        35.259 3      3584.689 3         0.000  
         0.000           0.000           0.000  
  14668919.482 5  -6762231.141 5        40.505 5      4005.867 5         0.000  
         0.000           0.000           0.000  
  12574833.748 7 -26677062.125 7        46.551 7      3142.394 7         0.000  
         0.000           0.000           0.000  
  14673162.680 5 -33475406.318 5        42.930 5     -1753.242 5         0.000  
         0.000           0.000           0.000  
  11178653.365 6 -46379511.445 6        44.046 6       546.192 6         0.000  
         0.000           0.000           0.000  
  16142005.596 4  -7299512.676 4        38.830 4      -235.990 4         0.000  
         0.000           0.000           0.000  
  13561710.570 5 -36410220.700 5        42.502 5     -1984.199 5         0.000  
         0.000           0.000           0.000  
  11329063.594 6 -39261039.036 6        45.492 6      2544.774 6         0.000  
         0.000           0.000           0.000  
  12080087.745 7 -28074411.621 7        48.298 7      -521.138 7         0.000  
         0.000           0.000           0.000  
 13 11 12  0 40 15.1039277  0  9G11G12G14G15G18G19G21G22G24
  16137339.664 3  -1001468.166 3        34.831 3      3583.984 3         0.000  
         0.000           0.000           0.000  
  14668156.362 5  -6766240.994 5        40.343 5      4005.763 5         0.000  
         0.000           0.000           0.000  
  12574235.132 7 -26680207.487 7        46.388 7      3142.058 7         0.000  
         0.000           0.000           0.000  
  14673496.540 6 -33473651.097 6        43.111 6     -1753.585 6         0.000  
         0.000           0.000           0.000  
  11178549.384 6 -46380057.811 6        43.799 6       545.422 6         0.000  
         0.000           0.000           0.000  
  16142050.687 4  -7299276.314 4        38.296 4      -236.246 4         0.000  
         0.000           0.000           0.000  
  13562088.641 5 -36408234.795 5        42.942 5     -1984.226 5         0.000  
         0.000           0.000           0.000  
  11328578.716 6 -39263586.383 6        45.464 6      2544.710 6         0.000  
         0.000           0.000           0.000  
  12080187.070 7 -28073889.536 7        48.203 7      -521.907 7         0.000  
         0.000           0.000           0.000  
 13 11 12  0 40 16.1029252  0  9G11G12G14G15G18G19G21G22G24
  16136658.293 3  -1005048.398 3        34.621 3      3583.214 3         0.000  
         0.000           0.000           0.000  
  14667395.215 5  -6770242.554 5        41.143 5      4005.459 5         0.000  
         0.000           0.000           0.000  
  12573637.766 7 -26683346.275 7        46.453 7      3141.780 7         0.000  
         0.000           0.000           0.000  
  14673829.857 6 -33471899.313 6        43.370 6     -1753.354 6         0.000  
         0.000           0.000           0.000  
  11178445.745 6 -46380602.614 6        43.712 6       544.906 6         0.000  
         0.000           0.000           0.000  
  16142095.801 4  -7299039.962 4        39.135 4      -236.830 4         0.000  
         0.000           0.000           0.000  
  13562466.006 5 -36406252.588 5        42.732 5     -1984.499 5         0.000  
         0.000           0.000           0.000  
  11328094.878 6 -39266128.237 6        45.187 6      2544.393 6         0.000  
         0.000           0.000           0.000  
  12080286.253 7 -28073367.926 7        47.928 7      -522.477 7         0.000  
         0.000           0.000           0.000  
 13 11 12  0 40 17.1039226  0  9G11G12G14G15G18G19G21G22G24
  16135975.533 3  -1008635.226 3        34.893 3      3583.104 3         0.000  
         0.000           0.000           0.000  
  14666632.520 5  -6774251.760 5        41.104 5      4005.025 5         0.000  
         0.000           0.000           0.000  
  12573039.344 7 -26686490.973 7        46.402 7      3141.400 7         0.000  
         0.000           0.000           0.000  
  14674163.889 6 -33470143.872 6        43.418 6     -1753.835 6         0.000  
         0.000           0.000           0.000  
  11178342.096 6 -46381147.928 6        43.768 6       544.584 6         0.000  
         0.000           0.000           0.000  
  16142141.057 4  -7298802.559 4        39.409 4      -237.214 4         0.000  
         0.000           0.000           0.000  
  13562844.183 5 -36404266.001 5        42.614 5     -1984.508 5         0.000  
         0.000           0.000           0.000  
  11327610.106 6 -39268674.675 6        45.163 6      2543.744 6         0.000  
         0.000           0.000           0.000  
  12080385.664 7 -28072844.602 7        48.120 7      -523.204 7         0.000  
         0.000           0.000           0.000  
 13 11 12  0 40 18.1029201  0  9G11G12G14G15G18G19G21G22G24
  16135294.809 3  -1012214.440 3        35.469 3      3581.712 3         0.000  
         0.000           0.000           0.000  
  14665871.275 5  -6778252.696 5        40.873 5      4004.552 5         0.000  
         0.000           0.000           0.000  
  12572442.105 7 -26689629.122 7        46.432 7      3140.917 7         0.000  
         0.000           0.000           0.000  
  14674497.331 6 -33468391.904 6        43.739 6     -1753.687 6         0.000  
         0.000           0.000           0.000  
  11178238.851 6 -46381691.698 6        44.053 6       544.049 6         0.000  
         0.000           0.000           0.000  
  16142186.281 4  -7298565.204 4        39.215 4      -237.493 4         0.000  
         0.000           0.000           0.000  
  13563221.561 5 -36402283.130 5        42.506 5     -1984.885 5         0.000  
         0.000           0.000           0.000  
  11327126.361 6 -39271215.654 6        45.378 6      2543.571 6         0.000  
         0.000           0.000           0.000  
  12080485.096 7 -28072321.774 7        48.152 7      -523.596 7         0.000  
         0.000           0.000           0.000  
 13 11 12  0 40 19.1039175  0  9G11G12G14G15G18G19G21G22G24
  16134612.383 3  -1015800.489 3        34.977 3      3582.064 3         0.000  
         0.000           0.000           0.000  
  14665108.611 5  -6782261.524 5        41.233 5      4004.859 5         0.000  
         0.000           0.000           0.000  
  12571843.859 7 -26692773.416 7        46.348 7      3141.217 7         0.000  
         0.000           0.000           0.000  
  14674831.474 6 -33466636.516 6        43.743 6     -1753.630 6         0.000  
         0.000           0.000           0.000  
  11178135.548 6 -46382236.258 6        43.648 6       543.873 6         0.000  
         0.000           0.000           0.000  
  16142231.556 4  -7298327.019 4        38.640 4      -238.757 4         0.000  
         0.000           0.000           0.000  
  13563599.636 5 -36400296.144 5        42.534 5     -1984.954 5         0.000  
         0.000           0.000           0.000  
  11326641.667 6 -39273761.430 6        45.111 6      2543.063 6         0.000  
         0.000           0.000           0.000  
  12080584.923 7 -28071797.460 7        48.394 7      -524.061 7         0.000  
         0.000           0.000           0.000  
 13 11 12  0 40 20.1029150  0  9G11G12G14G15G18G19G21G22G24
  16133931.471 3  -1019379.031 3        35.704 3      3582.296 3         0.000  
         0.000           0.000           0.000  
  14664347.559 5  -6786262.177 5        41.556 5      4004.722 5         0.000  
         0.000           0.000           0.000  
  12571246.686 7 -26695911.269 7        46.469 7      3140.889 7         0.000  
         0.000           0.000           0.000  
  14675164.940 6 -33464884.702 6        43.462 6     -1753.616 6         0.000  
         0.000           0.000           0.000  
  11178032.194 6 -46382779.363 6        43.916 6       543.099 6         0.000  
         0.000           0.000           0.000  
  16142277.034 4  -7298088.989 4        38.983 4      -238.411 4         0.000  
         0.000           0.000           0.000  
  13563977.013 5 -36398312.947 5        42.686 5     -1985.278 5         0.000  
         0.000           0.000           0.000  
  11326158.232 6 -39276301.850 6        45.715 6      2542.882 6         0.000  
         0.000           0.000           0.000  
  12080684.689 7 -28071273.769 7        48.296 7      -524.442 7         0.000  
         0.000           0.000           0.000  
 13 11 12  0 40 21.1039125  0  9G11G12G14G15G18G19G21G22G24
  16133248.782 3  -1022964.330 3        34.948 3      3582.036 3         0.000  
         0.000           0.000           0.000  
  14663585.354 5  -6790270.630 5        41.565 5      4004.384 5         0.000  
         0.000           0.000           0.000  
  12570648.463 7 -26699055.188 7        46.429 7      3140.523 7         0.000  
         0.000           0.000           0.000  
  14675498.893 6 -33463129.391 6        43.160 6     -1753.692 6         0.000  
         0.000           0.000           0.000  
  11177928.814 6 -46383323.161 6        43.613 6       542.941 6         0.000  
         0.000           0.000           0.000  
  16142322.823 4  -7297850.072 4        38.765 4      -238.633 4         0.000  
         0.000           0.000           0.000  
  13564355.070 5 -36396325.575 5        42.381 5     -1985.596 5         0.000  
         0.000           0.000           0.000  
  11325673.759 6 -39278847.025 6        44.950 6      2542.276 6         0.000  
         0.000           0.000           0.000  
  12080784.793 7 -28070748.513 7        48.518 7      -525.090 7         0.000  
         0.000           0.000           0.000  
 13 11 12  0 40 22.1029099  0  9G11G12G14G15G18G19G21G22G24
  16132567.868 3  -1026541.902 3        34.831 3      3581.045 3         0.000  
         0.000           0.000           0.000  
  14662824.636 5  -6794270.723 5        41.528 5      4003.827 5         0.000  
         0.000           0.000           0.000  
  12570051.443 7 -26702192.448 7        46.477 7      3140.265 7         0.000  
         0.000           0.000           0.000  
  14675832.092 6 -33461377.428 6        43.095 6     -1753.814 6         0.000  
         0.000           0.000           0.000  
  11177825.704 6 -46383865.300 6        44.367 6       542.247 6         0.000  
         0.000           0.000           0.000  
  16142368.689 4  -7297611.079 4        38.524 4      -239.137 4         0.000  
         0.000           0.000           0.000  
  13564732.361 5 -36394341.789 5        42.321 5     -1985.843 5         0.000  
         0.000           0.000           0.000  
  11325190.462 6 -39281386.605 6        45.469 6      2541.976 6         0.000  
         0.000           0.000           0.000  
  12080884.784 7 -28070223.621 7        48.448 7      -525.693 7         0.000  
         0.000           0.000           0.000  
 13 11 12  0 40 23.1039074  0  9G11G12G14G15G18G19G21G22G24
  16131885.797 3  -1030126.123 3        34.390 3      3580.154 3         0.000  
         0.000           0.000           0.000  
  14662062.306 5  -6798278.519 5        41.201 5      4003.401 5         0.000  
         0.000           0.000           0.000  
  12569453.344 7 -26705335.672 7        46.706 7      3140.101 7         0.000  
         0.000           0.000           0.000  
  14676166.010 5 -33459621.874 5        42.825 5     -1753.765 5         0.000  
         0.000           0.000           0.000  
  11177722.524 6 -46384408.026 6        44.142 6       542.243 6         0.000  
         0.000           0.000           0.000  
  16142414.595 4  -7297371.089 4        38.479 4      -240.012 4         0.000  
         0.000           0.000           0.000  
  13565110.337 5 -36392353.714 5        42.109 5     -1986.250 5         0.000  
         0.000           0.000           0.000  
  11324706.262 6 -39283930.825 6        45.552 6      2541.449 6         0.000  
         0.000           0.000           0.000  
  12080984.999 7 -28069697.086 7        48.321 7      -526.236 7         0.000  
         0.000           0.000           0.000  
 13 11 12  0 40 24.1039048  0  9G11G12G14G15G18G19G21G22G24
  16131204.241 3  -1033706.230 3        34.058 3      3579.564 3         0.000  
         0.000           0.000           0.000  
  14661300.624 5  -6802281.951 5        41.369 5      4003.518 5         0.000  
         0.000           0.000           0.000  
  12568856.064 7 -26708475.394 7        46.652 7      3139.515 7         0.000  
         0.000           0.000           0.000  
  14676499.716 6 -33457867.955 6        43.286 6     -1754.240 6         0.000  
         0.000           0.000           0.000  
  11177619.449 6 -46384949.666 6        44.012 6       541.385 6         0.000  
         0.000           0.000           0.000  
  16142460.160 4  -7297130.800 4        39.282 4      -240.754 4         0.000  
         0.000           0.000           0.000  
  13565487.922 5 -36390367.262 5        42.369 5     -1986.797 5         0.000  
         0.000           0.000           0.000  
  11324222.793 6 -39286472.025 6        45.521 6      2540.918 6         0.000  
         0.000           0.000           0.000  
  12081085.098 7 -28069170.432 7        48.145 7      -527.076 7         0.000  
         0.000           0.000           0.000  
 13 11 12  0 40 25.1029023  0  9G11G12G14G15G18G19G21G22G24
  16130523.886 3  -1037282.389 3        34.677 3      3579.768 3         0.000  
         0.000           0.000           0.000  
  14660539.662 5  -6806281.173 5        41.339 5      4003.068 5         0.000  
         0.000           0.000           0.000  
  12568259.452 7 -26711611.762 7        46.681 7      3139.353 7         0.000  
         0.000           0.000           0.000  
  14676833.255 6 -33456115.802 6        43.255 6     -1753.982 6         0.000  
         0.000           0.000           0.000  
  11177516.590 6 -46385490.350 6        43.953 6       541.039 6         0.000  
         0.000           0.000           0.000  
  16142506.101 4  -7296890.368 4        38.785 4      -240.988 4         0.000  
         0.000           0.000           0.000  
  13565865.165 5 -36388382.580 5        42.072 5     -1986.973 5         0.000  
         0.000           0.000           0.000  
  11323740.114 6 -39289010.343 6        45.545 6      2540.677 6         0.000  
         0.000           0.000           0.000  
  12081185.188 7 -28068643.799 7        48.225 7      -527.177 7         0.000  
         0.000           0.000           0.000  
 13 11 12  0 40 26.1038998  0  9G11G12G14G15G18G19G21G22G24
  16129841.785 3  -1040865.285 3        34.055 3      3578.733 3         0.000  
         0.000           0.000           0.000  
  14659777.160 5  -6810288.255 5        41.287 5      4002.719 5         0.000  
         0.000           0.000           0.000  
  12567661.733 7 -26714754.231 7        46.632 7      3139.259 7         0.000  
         0.000           0.000           0.000  
  14677167.424 6 -33454360.191 6        43.499 6     -1753.917 6         0.000  
         0.000           0.000           0.000  
  11177413.554 6 -46386031.760 6        44.173 6       540.569 6         0.000  
         0.000           0.000           0.000  
  16142552.130 4  -7296649.085 4        38.878 4      -240.968 4         0.000  
         0.000           0.000           0.000  
  13566243.179 5 -36386393.744 5        42.254 5     -1986.890 5         0.000  
         0.000           0.000           0.000  
  11323256.248 6 -39291553.446 6        45.560 6      2540.212 6         0.000  
         0.000           0.000           0.000  
  12081285.567 7 -28068115.653 7        48.160 7      -528.070 7         0.000  
         0.000           0.000           0.000  
 13 11 12  0 40 27.1028972  0  9G11G12G14G15G18G19G21G22G24
  16129161.431 3  -1044440.646 3        34.227 3      3578.636 3         0.000  
         0.000           0.000           0.000  
  14659016.151 5  -6814287.090 5        41.309 5      4002.782 5         0.000  
         0.000           0.000           0.000  
  12567065.260 7 -26717890.189 7        46.654 7      3138.908 7         0.000  
         0.000           0.000           0.000  
  14677501.005 6 -33452608.067 6        43.312 6     -1753.956 6         0.000  
         0.000           0.000           0.000  
  11177310.901 6 -46386571.661 6        44.513 6       540.090 6         0.000  
         0.000           0.000           0.000  
  16142598.213 4  -7296407.852 4        38.970 4      -241.641 4         0.000  
         0.000           0.000           0.000  
  13566620.493 5 -36384408.631 5        42.002 5     -1987.253 5         0.000  
         0.000           0.000           0.000  
  11322773.629 6 -39294091.099 6        45.665 6      2540.192 6         0.000  
         0.000           0.000           0.000  
  12081385.923 7 -28067588.055 7        48.339 7      -528.411 7         0.000  
         0.000           0.000           0.000  
 13 11 12  0 40 28.1038947  0  9G11G12G14G15G18G19G21G22G24
  16128479.868 3  -1048022.662 3        35.792 3      3578.600 3         0.000  
         0.000           0.000           0.000  
  14658253.836 5  -6818293.703 5        40.790 5      4002.565 5         0.000  
         0.000           0.000           0.000  
  12566467.446 7 -26721032.158 7        46.577 7      3138.803 7         0.000  
         0.000           0.000           0.000  
  14677835.176 6 -33450852.402 6        43.641 6     -1753.941 6         0.000  
         0.000           0.000           0.000  
  11177208.138 6 -46387112.186 6        44.121 6       539.668 6         0.000  
         0.000           0.000           0.000  
  16142644.435 4  -7296165.702 4        38.660 4      -242.369 4         0.000  
         0.000           0.000           0.000  
  13566998.585 5 -36382419.282 5        42.157 5     -1987.696 5         0.000  
         0.000           0.000           0.000  
  11322289.976 6 -39296633.470 6        45.503 6      2539.530 6         0.000  
         0.000           0.000           0.000  
  12081486.673 7 -28067058.862 7        48.319 7      -528.932 7         0.000  
         0.000           0.000           0.000  
 13 11 12  0 40 29.1028921  0  9G11G12G14G15G18G19G21G22G24
  16127799.832 3  -1051596.955 3        34.843 3      3577.512 3         0.000  
         0.000           0.000           0.000  
  14657492.964 5  -6822291.905 5        41.255 5      4002.307 5         0.000  
         0.000           0.000           0.000  
  12565870.855 7 -26724167.459 7        46.368 7      3138.389 7         0.000  
         0.000           0.000           0.000  
  14678168.713 6 -33449100.066 6        43.810 6     -1754.406 6         0.000  
         0.000           0.000           0.000  
  11177105.715 6 -46387651.061 6        44.592 6       539.079 6         0.000  
         0.000           0.000           0.000  
  16142690.494 4  -7295923.460 4        38.762 4      -242.813 4         0.000  
         0.000           0.000           0.000  
  13567375.908 5 -36380433.511 5        41.929 5     -1988.289 5         0.000  
         0.000           0.000           0.000  
  11321807.257 6 -39299170.236 6        45.779 6      2539.290 6         0.000  
         0.000           0.000           0.000  
  12081587.441 7 -28066530.037 7        48.434 7      -529.849 7         0.000  
         0.000           0.000           0.000  
 13 11 12  0 40 30.1038896  0  9G11G12G14G15G18G19G21G22G24
  16127118.704 3  -1055177.821 3        35.285 3      3577.114 3         0.000  
         0.000           0.000           0.000  
  14656730.584 5  -6826297.752 5        40.998 5      4001.797 5         0.000  
         0.000           0.000           0.000  
  12565273.200 7 -26727308.659 7        46.648 7      3138.003 7         0.000  
         0.000           0.000           0.000  
  14678502.901 6 -33447344.071 6        43.821 6     -1754.421 6         0.000  
         0.000           0.000           0.000  
  11177003.025 6 -46388190.445 6        44.182 6       538.462 6         0.000  
         0.000           0.000           0.000  
  16142736.749 4  -7295680.161 4        39.179 4      -243.691 4         0.000  
         0.000           0.000           0.000  
  13567754.212 5 -36378443.379 5        42.294 5     -1988.429 5         0.000  
         0.000           0.000           0.000  
  11321323.726 6 -39301711.580 6        45.663 6      2538.641 6         0.000  
         0.000           0.000           0.000  
  12081688.523 7 -28065999.493 7        48.441 7      -530.317 7         0.000  
         0.000           0.000           0.000  
 13 11 12  0 40 31.1028871  0  9G11G12G14G15G18G19G21G22G24
  16126439.385 3  -1058751.014 3        34.831 3      3577.061 3         0.000  
         0.000           0.000           0.000  
  14655969.855 5  -6830295.235 5        40.868 5      4001.081 5         0.000  
         0.000           0.000           0.000  
  12564676.716 7 -26730443.247 7        46.776 7      3137.635 7         0.000  
         0.000           0.000           0.000  
  14678836.449 6 -33445591.463 6        43.865 6     -1754.207 6         0.000  
         0.000           0.000           0.000  
  11176900.591 6 -46388728.214 6        44.207 6       538.078 6         0.000  
         0.000           0.000           0.000  
  16142783.097 4  -7295436.825 4        38.920 4      -243.824 4         0.000  
         0.000           0.000           0.000  
  13568131.834 5 -36376456.872 5        42.046 5     -1988.843 5         0.000  
         0.000           0.000           0.000  
  11320841.237 6 -39304247.372 6        45.521 6      2538.078 6         0.000  
         0.000           0.000           0.000  
  12081789.384 7 -28065469.363 7        48.316 7      -531.051 7         0.000  
         0.000           0.000           0.000  
 13 11 12  0 40 32.1038845  0  9G11G12G14G15G18G19G21G22G24
  16125758.433 3  -1062330.812 3        34.124 3      3575.919 3         0.000  
         0.000           0.000           0.000  
  14655207.524 5  -6834300.422 5        41.238 5      4001.360 5         0.000  
         0.000           0.000           0.000  
  12564079.128 7 -26733583.766 7        46.671 7      3137.402 7         0.000  
         0.000           0.000           0.000  
  14679170.732 6 -33443835.223 6        43.968 6     -1754.582 6         0.000  
         0.000           0.000           0.000  
  11176798.175 6 -46389266.527 6        44.473 6       537.361 6         0.000  
         0.000           0.000           0.000  
  16142830.072 4  -7295192.473 4        39.049 4      -244.584 4         0.000  
         0.000           0.000           0.000  
  13568510.399 5 -36374466.045 5        42.101 5     -1989.011 5         0.000  
         0.000           0.000           0.000  
  11320357.691 6 -39306787.770 6        45.608 6      2537.594 6         0.000  
         0.000           0.000           0.000  
  12081890.517 7 -28064937.554 7        48.201 7      -531.719 7         0.000  
         0.000           0.000           0.000  
 13 11 12  0 40 33.1038820  0  9G11G12G14G15G18G19G21G22G24
  16125077.748 2  -1065906.636 2        33.526 2      3575.742 2         0.000  
         0.000           0.000           0.000  
  14654445.853 5  -6838301.361 5        41.154 5      4000.647 5         0.000  
         0.000           0.000           0.000  
  12563482.169 7 -26736720.908 7        46.573 7      3136.986 7         0.000  
         0.000           0.000           0.000  
  14679504.761 6 -33442080.735 6        44.082 6     -1754.399 6         0.000  
         0.000           0.000           0.000  
  11176695.887 6 -46389803.881 6        44.481 6       537.015 6         0.000  
         0.000           0.000           0.000  
  16142877.083 4  -7294947.940 4        39.048 4      -244.873 4         0.000  
         0.000           0.000           0.000  
  13568888.681 5 -36372476.970 5        41.664 5     -1988.977 5         0.000  
         0.000           0.000           0.000  
  11319874.879 6 -39309325.279 6        45.422 6      2537.292 6         0.000  
         0.000           0.000           0.000  
  12081991.645 7 -28064405.755 7        48.219 7      -532.141 7         0.000  
         0.000           0.000           0.000  
 13 11 12  0 40 34.1038794  0  9G11G12G14G15G18G19G21G22G24
  16124397.210 2  -1069482.066 2        32.238 2      3575.635 2         0.000  
         0.000           0.000           0.000  
  14653684.658 5  -6842302.078 5        41.245 5      4000.919 5         0.000  
         0.000           0.000           0.000  
  12562885.155 7 -26739857.825 7        46.608 7      3136.873 7         0.000  
         0.000           0.000           0.000  
  14679838.734 6 -33440326.233 6        44.031 6     -1754.513 6         0.000  
         0.000           0.000           0.000  
  11176593.811 6 -46390340.814 6        44.434 6       536.625 6         0.000  
         0.000           0.000           0.000  
  16142923.972 4  -7294702.978 4        38.193 4      -245.250 4         0.000  
         0.000           0.000           0.000  
  13569267.147 5 -36370487.647 5        42.271 5     -1989.831 5         0.000  
         0.000           0.000           0.000  
  11319392.169 6 -39311862.430 6        45.271 6      2537.177 6         0.000  
         0.000           0.000           0.000  
  12082092.938 7 -28063873.422 7        48.191 7      -532.578 7         0.000  
         0.000           0.000           0.000  
 13 11 12  0 40 35.1038769  0  9G11G12G14G15G18G19G21G22G24
  16123716.360 2  -1073057.061 2        33.162 2      3574.292 2         0.000  
         0.000           0.000           0.000  
  14652923.480 5  -6846302.594 5        41.135 5      4000.392 5         0.000  
         0.000           0.000           0.000  
  12562288.209 7 -26742994.512 7        46.498 7      3136.652 7         0.000  
         0.000           0.000           0.000  
  14680172.688 6 -33438571.741 6        43.757 6     -1754.450 6         0.000  
         0.000           0.000           0.000  
  11176491.705 6 -46390877.349 6        44.780 6       536.474 6         0.000  
         0.000           0.000           0.000  
  16142970.794 4  -7294457.622 4        38.155 4      -245.570 4         0.000  
         0.000           0.000           0.000  
  13569645.763 5 -36368498.104 5        42.136 5     -1989.737 5         0.000  
         0.000           0.000           0.000  
  11318909.491 6 -39314399.230 6        45.708 6      2536.717 6         0.000  
         0.000           0.000           0.000  
  12082194.294 7 -28063340.604 7        48.246 7      -533.031 7         0.000  
         0.000           0.000           0.000  
 13 11 12  0 40 36.1028744  0  9G11G12G14G15G18G19G21G22G24
  16123036.861 3  -1076628.047 3        34.341 3      3574.170 3         0.000  
         0.000           0.000           0.000  
  14652162.983 5  -6850298.867 5        41.276 5      4000.134 5         0.000  
         0.000           0.000           0.000  
  12561691.855 7 -26746127.819 7        46.431 7      3136.112 7         0.000  
         0.000           0.000           0.000  
  14680506.279 6 -33436818.984 6        44.196 6     -1754.332 6         0.000  
         0.000           0.000           0.000  
  11176389.735 6 -46391412.909 6        44.002 6       535.644 6         0.000  
         0.000           0.000           0.000  
  16143017.537 4  -7294212.101 4        38.158 4      -245.938 4         0.000  
         0.000           0.000           0.000  
  13570024.260 5 -36366510.307 5        42.581 5     -1989.762 5         0.000  
         0.000           0.000           0.000  
  11318427.391 6 -39316933.121 6        45.555 6      2536.195 6         0.000  
         0.000           0.000           0.000  
  12082295.778 7 -28062807.770 7        48.334 7      -533.818 7         0.000  
         0.000           0.000           0.000  
 13 11 12  0 40 37.1038718  0  9G11G12G14G15G18G19G21G22G24
  16122356.749 3  -1080205.658 3        34.115 3      3574.355 3         0.000  
         0.000           0.000           0.000  
  14651400.987 5  -6854302.838 5        40.778 5      3999.649 5         0.000  
         0.000           0.000           0.000  
  12561094.423 7 -26749267.083 7        46.539 7      3136.007 7         0.000  
         0.000           0.000           0.000  
  14680840.553 6 -33435062.624 6        43.865 6     -1754.652 6         0.000  
         0.000           0.000           0.000  
  11176287.976 6 -46391949.037 6        44.666 6       535.397 6         0.000  
         0.000           0.000           0.000  
  16143064.722 4  -7293965.571 4        38.638 4      -246.419 4         0.000  
         0.000           0.000           0.000  
  13570403.649 5 -36364518.204 5        42.497 5     -1990.528 5         0.000  
         0.000           0.000           0.000  
  11317944.275 6 -39319471.643 6        45.770 6      2536.186 6         0.000  
         0.000           0.000           0.000  
  12082397.628 7 -28062273.282 7        48.456 7      -534.311 7         0.000  
         0.000           0.000           0.000  
 13 11 12  0 40 38.1028693  0  9G11G12G14G15G18G19G21G22G24
  16121677.853 3  -1083775.663 3        34.693 3      3573.052 3         0.000  
         0.000           0.000           0.000  
  14650640.513 5  -6858298.540 5        40.996 5      3999.645 5         0.000  
         0.000           0.000           0.000  
  12560498.309 7 -26752399.800 7        46.452 7      3135.654 7         0.000  
         0.000           0.000           0.000  
  14681174.181 6 -33433309.724 6        44.087 6     -1754.836 6         0.000  
         0.000           0.000           0.000  
  11176186.302 6 -46392483.626 6        43.975 6       534.821 6         0.000  
         0.000           0.000           0.000  
  16143111.746 4  -7293719.083 4        38.855 4      -247.105 4         0.000  
         0.000           0.000           0.000  
  13570782.441 5 -36362529.821 5        42.885 5     -1990.620 5         0.000  
         0.000           0.000           0.000  
  11317462.136 6 -39322004.702 6        45.343 6      2535.563 6         0.000  
         0.000           0.000           0.000  
  12082499.293 7 -28061739.327 7        48.421 7      -534.745 7         0.000  
         0.000           0.000           0.000  
 13 11 12  0 40 39.1038667  0  9G11G12G14G15G18G19G21G22G24
  16120997.514 3  -1087352.344 3        34.470 3      3573.171 3         0.000  
         0.000           0.000           0.000  
  14649878.428 5  -6862301.983 5        41.048 5      3999.387 5         0.000  
         0.000           0.000           0.000  
  12559901.030 7 -26755538.512 7        46.591 7      3135.475 7         0.000  
         0.000           0.000           0.000  
  14681508.625 6 -33431553.263 6        44.078 6     -1754.783 6         0.000  
         0.000           0.000           0.000  
  11176084.513 6 -46393018.826 6        44.816 6       534.392 6         0.000  
         0.000           0.000           0.000  
  16143159.252 4  -7293471.640 4        38.846 4      -247.284 4         0.000  
         0.000           0.000           0.000  
  13571162.196 5 -36360537.171 5        42.789 5     -1990.765 5         0.000  
         0.000           0.000           0.000  
  11316979.238 6 -39324542.432 6        45.630 6      2535.021 6         0.000  
         0.000           0.000           0.000  
  12082601.268 7 -28061203.709 7        48.474 7      -535.450 7         0.000  
         0.000           0.000           0.000  
 13 11 12  0 40 40.1028642  0  9G11G12G14G15G18G19G21G22G24
  16120317.847 2  -1090921.452 2        33.370 2      3572.611 2         0.000  
         0.000           0.000           0.000  
  14649117.884 5  -6866297.202 5        40.792 5      3999.645 5         0.000  
         0.000           0.000           0.000  
  12559305.067 7 -26758670.725 7        46.511 7      3135.323 7         0.000  
         0.000           0.000           0.000  
  14681842.335 6 -33429800.309 6        43.891 6     -1754.685 6         0.000  
         0.000           0.000           0.000  
  11175983.083 6 -46393552.533 6        44.808 6       533.959 6         0.000  
         0.000           0.000           0.000  
  16143206.456 4  -7293224.274 4        38.856 4      -248.066 4         0.000  
         0.000           0.000           0.000  
  13571541.327 5 -36358548.264 5        42.677 5     -1990.932 5         0.000  
         0.000           0.000           0.000  
  11316497.295 6 -39327074.727 6        45.541 6      2534.701 6         0.000  
         0.000           0.000           0.000  
  12082703.172 7 -28060668.656 7        48.127 7      -535.845 7         0.000  
         0.000           0.000           0.000  
 13 11 12  0 40 41.1038617  0  9G11G12G14G15G18G19G21G22G24
  16119636.592 2  -1094497.182 2        32.408 2      3571.283 2         0.000  
         0.000           0.000           0.000  
  14648356.053 5  -6870300.075 5        41.159 5      3998.757 5         0.000  
         0.000           0.000           0.000  
  12558707.797 7 -26761808.853 7        46.455 7      3134.823 7         0.000  
         0.000           0.000           0.000  
  14682176.616 6 -33428043.725 6        43.796 6     -1754.772 6         0.000  
         0.000           0.000           0.000  
  11175881.566 6 -46394086.761 6        44.602 6       533.485 6         0.000  
         0.000           0.000           0.000  
  16143253.719 4  -7292975.886 4        38.778 4      -248.742 4         0.000  
         0.000           0.000           0.000  
  13571921.296 5 -36356555.031 5        42.778 5     -1991.388 5         0.000  
         0.000           0.000           0.000  
  11316014.526 6 -39329611.635 6        45.237 6      2533.947 6         0.000  
         0.000           0.000           0.000  
  12082805.218 7 -28060131.910 7        48.172 7      -536.430 7         0.000  
         0.000           0.000           0.000  
 13 11 12  0 40 42.1048591  0  9G11G12G14G15G18G19G21G22G24
  16118955.493 2  -1098072.330 2        33.132 2      3570.812 2         0.000  
         0.000           0.000           0.000  
  14647594.467 5  -6874302.549 5        41.395 5      3998.417 5         0.000  
         0.000           0.000           0.000  
  12558110.608 7 -26764946.559 7        46.565 7      3134.322 7         0.000  
         0.000           0.000           0.000  
  14682510.860 6 -33426286.932 6        43.682 6     -1755.304 6         0.000  
         0.000           0.000           0.000  
  11175780.253 6 -46394620.402 6        44.581 6       532.913 6         0.000  
         0.000           0.000           0.000  
  16143300.973 4  -7292726.897 4        39.084 4      -248.472 4         0.000  
         0.000           0.000           0.000  
  13572301.413 5 -36354561.372 5        42.783 5     -1991.898 5         0.000  
         0.000           0.000           0.000  
  11315531.767 6 -39332147.985 6        45.635 6      2533.656 6         0.000  
         0.000           0.000           0.000  
  12082907.290 7 -28059594.441 7        48.314 7      -537.354 7         0.000  
         0.000           0.000           0.000  
 13 11 12  0 40 43.1038566  0  9G11G12G14G15G18G19G21G22G24
  16118276.562 2  -1101639.801 2        33.214 2      3571.137 2         0.000  
         0.000           0.000           0.000  
  14646834.351 5  -6878296.674 5        41.282 5      3998.010 5         0.000  
         0.000           0.000           0.000  
  12557514.682 7 -26768077.653 7        46.514 7      3134.090 7         0.000  
         0.000           0.000           0.000  
  14682844.511 6 -33424533.536 6        43.333 6     -1755.075 6         0.000  
         0.000           0.000           0.000  
  11175679.130 6 -46395152.425 6        44.739 6       532.340 6         0.000  
         0.000           0.000           0.000  
  16143348.402 4  -7292477.862 4        38.737 4      -249.564 4         0.000  
         0.000           0.000           0.000  
  13572680.535 5 -36352571.347 5        42.753 5     -1992.245 5         0.000  
         0.000           0.000           0.000  
  11315050.251 6 -39334678.803 6        45.743 6      2533.312 6         0.000  
         0.000           0.000           0.000  
  12083009.364 7 -28059057.420 7        48.137 7      -537.912 7         0.000  
         0.000           0.000           0.000  
 13 11 12  0 40 44.1038540  0  9G11G12G14G15G18G19G21G22G24
  16117597.647 2  -1105210.465 2        33.267 2      3569.742 2         0.000  
         0.000           0.000           0.000  
  14646073.159 5  -6882294.637 5        41.129 5      3998.023 5         0.000  
         0.000           0.000           0.000  
  12556918.204 7 -26771211.704 7        46.417 7      3134.045 7         0.000  
         0.000           0.000           0.000  
  14683178.355 6 -33422778.439 6        43.756 6     -1755.115 6         0.000  
         0.000           0.000           0.000  
  11175577.982 6 -46395684.621 6        44.337 6       531.610 6         0.000  
         0.000           0.000           0.000  
  16143395.905 4  -7292228.222 4        39.088 4      -249.912 4         0.000  
         0.000           0.000           0.000  
  13573060.301 5 -36350579.147 5        42.919 5     -1992.291 5         0.000  
         0.000           0.000           0.000  
  11314568.294 6 -39337211.860 6        45.647 6      2532.969 6         0.000  
         0.000           0.000           0.000  
  12083111.646 7 -28058519.418 7        48.330 7      -538.309 7         0.000  
         0.000           0.000           0.000  
 13 11 12  0 40 45.1038515  0  9G11G12G14G15G18G19G21G22G24
  16116918.892 2  -1108780.811 2        32.545 2      3569.721 2         0.000  
         0.000           0.000           0.000  
  14645312.222 5  -6886292.487 5        41.055 5      3997.694 5         0.000  
         0.000           0.000           0.000  
  12556321.820 7 -26774345.635 7        46.438 7      3133.751 7         0.000  
         0.000           0.000           0.000  
  14683512.352 6 -33421023.426 6        43.648 6     -1755.153 6         0.000  
         0.000           0.000           0.000  
  11175476.696 6 -46396216.503 6        44.550 6       531.515 6         0.000  
         0.000           0.000           0.000  
  16143443.793 4  -7291978.278 4        38.863 4      -250.489 4         0.000  
         0.000           0.000           0.000  
  13573439.955 5 -36348586.821 5        42.985 5     -1992.440 5         0.000  
         0.000           0.000           0.000  
  11314086.312 6 -39339744.661 6        45.515 6      2532.549 6         0.000  
         0.000           0.000           0.000  
  12083214.140 7 -28057981.003 7        48.238 7      -538.629 7         0.000  
         0.000           0.000           0.000  
 13 11 12  0 40 46.1038490  0  9G11G12G14G15G18G19G21G22G24
  16116240.089 2  -1112350.659 2        33.731 2      3569.330 2         0.000  
         0.000           0.000           0.000  
  14644551.259 5  -6890290.057 5        41.027 5      3997.510 5         0.000  
         0.000           0.000           0.000  
  12555725.613 7 -26777479.285 7        46.381 7      3133.489 7         0.000  
         0.000           0.000           0.000  
  14683846.254 6 -33419268.383 6        43.494 6     -1754.988 6         0.000  
         0.000           0.000           0.000  
  11175375.571 6 -46396747.921 6        44.265 6       531.327 6         0.000  
         0.000           0.000           0.000  
  16143491.506 4  -7291727.875 4        38.907 4      -250.220 4         0.000  
         0.000           0.000           0.000  
  13573819.548 5 -36346594.218 5        42.946 5     -1992.602 5         0.000  
         0.000           0.000           0.000  
  11313604.453 6 -39342277.071 6        45.621 6      2532.388 6         0.000  
         0.000           0.000           0.000  
  12083316.881 7 -28057442.028 7        48.388 7      -539.126 7         0.000  
         0.000           0.000           0.000  
 13 11 12  0 40 47.1028464  0  9G11G12G14G15G18G19G21G22G24
  16115562.357 3  -1115916.514 3        34.646 3      3568.569 3         0.000  
         0.000           0.000           0.000  
  14643791.389 5  -6894283.389 5        41.384 5      3997.012 5         0.000  
         0.000           0.000           0.000  
  12555129.929 7 -26780609.544 7        46.403 7      3133.143 7         0.000  
         0.000           0.000           0.000  
  14684179.809 6 -33417515.045 6        43.474 6     -1755.026 6         0.000  
         0.000           0.000           0.000  
  11175274.634 6 -46397278.356 6        44.414 6       530.959 6         0.000  
         0.000           0.000           0.000  
  16143539.235 4  -7291477.271 4        39.034 4      -251.438 4         0.000  
         0.000           0.000           0.000  
  13574198.844 5 -36344603.353 5        42.499 5     -1992.883 5         0.000  
         0.000           0.000           0.000  
  11313123.147 6 -39344806.554 6        45.410 6      2531.605 6         0.000  
         0.000           0.000           0.000  
  12083419.646 7 -28056903.045 7        48.325 7      -539.954 7         0.000  
         0.000           0.000           0.000  
 13 11 12  0 40 48.1038439  0  9G11G12G14G15G18G19G21G22G24
  16114883.210 3  -1119489.013 3        34.397 3      3569.024 3         0.000  
         0.000           0.000           0.000  
  14643030.244 5  -6898284.416 5        41.553 5      3996.845 5         0.000  
         0.000           0.000           0.000  
  12554533.177 7 -26783745.780 7        46.570 7      3133.115 7         0.000  
         0.000           0.000           0.000  
  14684513.997 6 -33415758.134 6        43.221 6     -1755.369 6         0.000  
         0.000           0.000           0.000  
  11175173.625 6 -46397809.359 6        44.499 6       529.929 6         0.000  
         0.000           0.000           0.000  
  16143587.382 4  -7291225.694 4        39.265 4      -251.559 4         0.000  
         0.000           0.000           0.000  
  13574578.853 5 -36342608.199 5        42.701 5     -1993.449 5         0.000  
         0.000           0.000           0.000  
  11312640.971 6 -39347340.690 6        45.461 6      2531.205 6         0.000  
         0.000           0.000           0.000  
  12083522.727 7 -28056362.396 7        48.453 7      -540.496 7         0.000  
         0.000           0.000           0.000  
 13 11 12  0 40 49.1028414  0  9G11G12G14G15G18G19G21G22G24
  16114205.251 2  -1123053.865 2        33.847 2      3567.756 2         0.000  
         0.000           0.000           0.000  
  14642270.713 5  -6902277.146 5        42.165 5      3996.689 5         0.000  
         0.000           0.000           0.000  
  12553937.701 7 -26786875.428 7        46.547 7      3132.572 7         0.000  
         0.000           0.000           0.000  
  14684847.602 6 -33414004.647 6        43.281 6     -1755.350 6         0.000  
         0.000           0.000           0.000  
  11175072.879 6 -46398338.805 6        44.466 6       529.773 6         0.000  
         0.000           0.000           0.000  
  16143635.624 4  -7290974.126 4        39.451 4      -252.068 4         0.000  
         0.000           0.000           0.000  
  13574958.119 5 -36340616.718 5        42.724 5     -1993.996 5         0.000  
         0.000           0.000           0.000  
  11312159.833 6 -39349869.315 6        45.444 6      2531.027 6         0.000  
         0.000           0.000           0.000  
  12083625.600 7 -28055822.213 7        48.271 7      -541.007 7         0.000  
         0.000           0.000           0.000  
 13 11 12  0 40 50.1038388  0  9G11G12G14G15G18G19G21G22G24
  16113526.259 3  -1126625.434 3        35.404 3      3568.062 3         0.000  
         0.000           0.000           0.000  
  14641509.848 5  -6906277.629 5        42.186 5      3996.316 5         0.000  
         0.000           0.000           0.000  
  12553341.006 7 -26790011.096 7        46.125 7      3132.303 7         0.000  
         0.000           0.000           0.000  
  14685181.869 6 -33412247.622 6        43.369 6     -1755.137 6         0.000  
         0.000           0.000           0.000  
  11174971.971 6 -46398868.878 6        44.833 6       529.342 6         0.000  
         0.000           0.000           0.000  
  16143683.580 4  -7290721.614 4        39.199 4      -252.314 4         0.000  
         0.000           0.000           0.000  
  13575338.074 5 -36338620.995 5        42.397 5     -1993.740 5         0.000  
         0.000           0.000           0.000  
  11311677.774 6 -39352402.626 6        45.699 6      2530.624 6         0.000  
         0.000           0.000           0.000  
  12083728.659 7 -28055280.437 7        48.250 7      -541.475 7         0.000  
         0.000           0.000           0.000  
 13 11 12  0 40 51.1048363  0  9G11G12G14G15G18G19G21G22G24
  16112846.963 3  -1130196.554 3        34.176 3      3567.468 3         0.000  
         0.000           0.000           0.000  
  14640748.960 5  -6910277.884 5        42.320 5      3996.308 5         0.000  
         0.000           0.000           0.000  
  12552744.321 7 -26793146.525 7        46.265 7      3132.171 7         0.000  
         0.000           0.000           0.000  
  14685515.988 6 -33410490.585 6        43.431 6     -1755.174 6         0.000  
         0.000           0.000           0.000  
  11174871.289 6 -46399398.500 6        44.848 6       528.956 6         0.000  
         0.000           0.000           0.000  
  16143731.918 4  -7290468.694 4        39.258 4      -252.854 4         0.000  
         0.000           0.000           0.000  
  13575717.886 5 -36336625.048 5        42.417 5     -1993.916 5         0.000  
         0.000           0.000           0.000  
  11311195.968 6 -39354935.589 6        45.545 6      2530.394 6         0.000  
         0.000           0.000           0.000  
  12083831.855 7 -28054738.151 7        48.108 7      -541.990 7         0.000  
         0.000           0.000           0.000  
 13 11 12  0 40 52.1038337  0  9G11G12G14G15G18G19G21G22G24
  16112169.56312  -1133760.16512        32.83912      3566.60212         0.000  
         0.000           0.000           0.000  
  14639989.421 5  -6914269.953 5        42.007 5      3996.317 5         0.000  
         0.000           0.000           0.000  
  12552148.787 7 -26796275.483 7        46.228 7      3131.894 7         0.000  
         0.000           0.000           0.000  
  14685849.507 6 -33408737.074 6        43.524 6     -1755.399 6         0.000  
         0.000           0.000           0.000  
  11174770.915 6 -46399926.696 6        44.860 6       528.642 6         0.000  
         0.000           0.000           0.000  
  16143780.189 4  -7290215.878 4        39.407 4      -253.296 4         0.000  
         0.000           0.000           0.000  
  13576096.735 5 -36334632.870 5        42.417 5     -1994.177 5         0.000  
         0.000           0.000           0.000  
  11310715.249 6 -39357463.143 6        45.599 6      2529.742 6         0.000  
         0.000           0.000           0.000  
  12083934.849 7 -28054196.456 7        48.178 7      -542.440 7         0.000  
         0.000           0.000           0.000  
 13 11 12  0 40 53.1048312  0  9G11G12G14G15G18G19G21G22G24
  16111491.725 2  -1137330.515 2        32.611 2      3566.635 2         0.000  
         0.000           0.000           0.000  
  14639228.458 5  -6918269.803 5        41.957 5      3995.896 5         0.000  
         0.000           0.000           0.000  
  12551552.178 7 -26799410.493 7        46.395 7      3131.683 7         0.000  
         0.000           0.000           0.000  
  14686183.691 6 -33406980.064 6        43.266 6     -1755.324 6         0.000  
         0.000           0.000           0.000  
  11174670.445 6 -46400455.532 6        44.745 6       528.130 6         0.000  
         0.000           0.000           0.000  
  16143828.993 4  -7289962.159 4        39.411 4      -253.555 4         0.000  
         0.000           0.000           0.000  
  13576476.423 5 -36332636.496 5        42.105 5     -1994.844 5         0.000  
         0.000           0.000           0.000  
  11310233.456 6 -39359995.435 6        45.839 6      2529.780 6         0.000  
         0.000           0.000           0.000  
  12084038.210 7 -28053653.171 7        48.393 7      -543.145 7         0.000  
         0.000           0.000           0.000  
 13 11 12  0 40 54.1038287  0  9G11G12G14G15G18G19G21G22G24
  16110817.338 2  -1140893.324 2        33.099 2      3566.185 2         0.000  
         0.000           0.000           0.000  
  14638468.773 5  -6922261.480 5        41.638 5      3995.746 5         0.000  
         0.000           0.000           0.000  
  12550956.841 7 -26802539.045 7        46.399 7      3131.585 7         0.000  
         0.000           0.000           0.000  
  14686517.161 6 -33405226.615 6        43.460 6     -1755.322 6         0.000  
         0.000           0.000           0.000  
  11174570.106 6 -46400982.946 6        44.825 6       527.493 6         0.000  
         0.000           0.000           0.000  
  16143877.469 4  -7289708.569 4        39.745 4      -254.050 4         0.000  
         0.000           0.000           0.000  
  13576855.199 5 -36330643.920 5        42.065 5     -1994.536 5         0.000  
         0.000           0.000           0.000  
  11309752.641 6 -39362522.343 6        45.790 6      2529.100 6         0.000  
         0.000           0.000           0.000  
  12084141.423 7 -28053110.511 7        48.342 7      -543.466 7         0.000  
         0.000           0.000           0.000  
 13 11 12  0 40 55.1038261  0  9G11G12G14G15G18G19G21G22G24
  16110139.041 3  -1144459.292 3        34.553 3      3565.053 3         0.000  
         0.000           0.000           0.000  
  14637708.434 5  -6926256.926 5        41.692 5      3995.388 5         0.000  
         0.000           0.000           0.000  
  12550360.959 7 -26805670.509 7        46.466 7      3131.412 7         0.000  
         0.000           0.000           0.000  
  14686851.007 6 -33403471.390 6        43.437 6     -1755.502 6         0.000  
         0.000           0.000           0.000  
  11174469.638 6 -46401510.485 6        44.298 6       527.052 6         0.000  
         0.000           0.000           0.000  
  16143926.036 4  -7289454.339 4        39.882 4      -254.911 4         0.000  
         0.000           0.000           0.000  
  13577234.368 5 -36328649.113 5        41.684 5     -1994.920 5         0.000  
         0.000           0.000           0.000  
  11309271.452 6 -39365051.414 6        45.320 6      2528.738 6         0.000  
         0.000           0.000           0.000  
  12084244.817 7 -28052566.777 7        48.416 7      -544.254 7         0.000  
         0.000           0.000           0.000  
 13 11 12  0 40 56.1038236  0  9G11G12G14G15G18G19G21G22G24
  16109460.013 3  -1148024.673 3        34.574 3      3565.730 3         0.000  
         0.000           0.000           0.000  
  14636948.110 5  -6930252.016 5        41.561 5      3994.963 5         0.000  
         0.000           0.000           0.000  
  12549765.172 7 -26808801.605 7        46.353 7      3131.051 7         0.000  
         0.000           0.000           0.000  
  14687184.987 6 -33401716.038 6        43.647 6     -1755.628 6         0.000  
         0.000           0.000           0.000  
  11174369.315 6 -46402037.451 6        44.804 6       526.771 6         0.000  
         0.000           0.000           0.000  
  16143974.342 4  -7289199.551 4        39.420 4      -255.532 4         0.000  
         0.000           0.000           0.000  
  13577613.483 5 -36326653.951 5        41.859 5     -1995.319 5         0.000  
         0.000           0.000           0.000  
  11308790.395 6 -39367580.014 6        45.667 6      2528.452 6         0.000  
         0.000           0.000           0.000  
  12084348.390 7 -28052022.410 7        48.241 7      -544.745 7         0.000  
         0.000           0.000           0.000  
 13 11 12  0 40 57.1038211  0  9G11G12G14G15G18G19G21G22G24
  16108781.278 3  -1151589.520 3        34.340 3      3563.548 3         0.000  
         0.000           0.000           0.000  
  14636187.984 5  -6934246.748 5        41.557 5      3994.707 5         0.000  
         0.000           0.000           0.000  
  12549169.468 7 -26811932.333 7        46.436 7      3130.536 7         0.000  
         0.000           0.000           0.000  
  14687519.113 6 -33399960.538 6        43.650 6     -1755.976 6         0.000  
         0.000           0.000           0.000  
  11174269.141 6 -46402563.850 6        43.986 6       526.069 6         0.000  
         0.000           0.000           0.000  
  16144022.595 4  -7288944.224 4        38.889 4      -255.683 4         0.000  
         0.000           0.000           0.000  
  13577992.594 5 -36324658.408 5        41.881 5     -1995.888 5         0.000  
         0.000           0.000           0.000  
  11308309.349 6 -39370108.119 6        45.499 6      2527.878 6         0.000  
         0.000           0.000           0.000  
  12084452.143 7 -28051477.375 7        48.390 7      -545.357 7         0.000  
         0.000           0.000           0.000  
 13 11 12  0 40 58.1038185  0  9G11G12G14G15G18G19G21G22G24
  16108100.820 2  -1155153.823 2        33.753 2      3564.076 2         0.000  
         0.000           0.000           0.000  
  14635427.753 5  -6938241.172 5        41.424 5      3994.465 5         0.000  
         0.000           0.000           0.000  
  12548573.844 7 -26815062.729 7        46.407 7      3130.422 7         0.000  
         0.000           0.000           0.000  
  14687853.270 6 -33398204.947 6        43.386 6     -1755.543 6         0.000  
         0.000           0.000           0.000  
  11174169.065 6 -46403089.750 6        44.766 6       525.601 6         0.000  
         0.000           0.000           0.000  
  16144071.222 4  -7288688.360 4        38.973 4      -256.130 4         0.000  
         0.000           0.000           0.000  
  13578371.642 5 -36322662.544 5        41.615 5     -1996.500 5         0.000  
         0.000           0.000           0.000  
  11307828.399 6 -39372635.774 6        45.689 6      2527.481 6         0.000  
         0.000           0.000           0.000  
  12084556.040 7 -28050931.735 7        48.455 7      -545.977 7         0.000  
         0.000           0.000           0.000  
 13 11 12  0 40 59.1038160  0  9G11G12G14G15G18G19G21G22G24
  16107422.338 2  -1158717.765 2        33.810 2      3564.680 2         0.000  
         0.000           0.000           0.000  
  14634667.631 5  -6942235.385 5        41.688 5      3994.073 5         0.000  
         0.000           0.000           0.000  
  12547978.150 7 -26818192.927 7        46.601 7      3129.962 7         0.000  
         0.000           0.000           0.000  
  14688187.502 6 -33396449.380 6        43.343 6     -1755.535 6         0.000  
         0.000           0.000           0.000  
  11174068.955 6 -46403615.252 6        44.550 6       525.184 6         0.000  
         0.000           0.000           0.000  
  16144119.886 4  -7288432.113 4        38.883 4      -256.305 4         0.000  
         0.000           0.000           0.000  
  13578750.738 5 -36320666.486 5        41.332 5     -1996.090 5         0.000  
         0.000           0.000           0.000  
  11307347.517 6 -39375163.090 6        45.578 6      2527.318 6         0.000  
         0.000           0.000           0.000  
  12084660.022 7 -28050385.607 7        48.423 7      -546.430 7         0.000  
         0.000           0.000           0.000  
 13 11 12  0 41  0.1048135  0  9G11G12G14G15G18G19G21G22G24
  16106743.594 2  -1162284.948 2        32.992 2      3563.521 2         0.000  
         0.000           0.000           0.000  
  14633906.812 5  -6946233.449 5        41.787 5      3994.293 5         0.000  
         0.000           0.000           0.000  
  12547382.022 7 -26821326.108 7        46.321 7      3130.173 7         0.000  
         0.000           0.000           0.000  
  14688521.991 6 -33394692.134 6        43.596 6     -1755.184 6         0.000  
         0.000           0.000           0.000  
  11173968.792 6 -46404140.933 6        44.718 6       525.042 6         0.000  
         0.000           0.000           0.000  
  16144168.980 4  -7288175.306 4        39.224 4      -256.667 4         0.000  
         0.000           0.000           0.000  
  13579130.350 5 -36318668.275 5        41.395 5     -1995.961 5         0.000  
         0.000           0.000           0.000  
  11306866.193 6 -39377692.686 6        45.664 6      2527.200 6         0.000  
         0.000           0.000           0.000  
  12084764.244 7 -28049838.536 7        48.455 7      -546.870 7         0.000  
         0.000           0.000           0.000  
 13 11 12  0 41  1.1038109  0  9G11G12G14G15G18G19G21G22G24
  16106065.543 2  -1165844.752 2        32.920 2      3563.149 2         0.000  
         0.000           0.000           0.000  
  14633147.534 5  -6950223.495 5        41.518 5      3993.991 5         0.000  
         0.000           0.000           0.000  
  12546787.002 7 -26824452.991 7        46.154 7      3130.103 7         0.000  
         0.000           0.000           0.000  
  14688855.893 6 -33392938.577 6        43.745 6     -1755.262 6         0.000  
         0.000           0.000           0.000  
  11173868.833 6 -46404665.345 6        44.635 6       524.898 6         0.000  
         0.000           0.000           0.000  
  16144218.118 4  -7287918.782 4        39.250 4      -257.028 4         0.000  
         0.000           0.000           0.000  
  13579509.080 5 -36316674.001 5        41.440 5     -1996.595 5         0.000  
         0.000           0.000           0.000  
  11306385.854 6 -39380217.035 6        45.700 6      2526.703 6         0.000  
         0.000           0.000           0.000  
  12084868.287 7 -28049292.226 7        48.445 7      -546.912 7         0.000  
         0.000           0.000           0.000  
 13 11 12  0 41  2.1048084  0  9G11G12G14G15G18G19G21G22G24
  16105388.762 2  -1169411.383 2        33.097 2      3562.332 2         0.000  
         0.000           0.000           0.000  
  14632386.636 5  -6954221.412 5        41.665 5      3993.980 5         0.000  
         0.000           0.000           0.000  
  12546190.792 7 -26827586.006 7        46.470 7      3130.049 7         0.000  
         0.000           0.000           0.000  
  14689190.369 6 -33391181.621 6        43.497 6     -1754.990 6         0.000  
         0.000           0.000           0.000  
  11173768.755 6 -46405190.492 6        44.824 6       524.575 6         0.000  
         0.000           0.000           0.000  
  16144267.427 4  -7287661.433 4        39.627 4      -257.390 4         0.000  
         0.000           0.000           0.000  
  13579888.683 5 -36314675.643 5        41.084 5     -1996.139 5         0.000  
         0.000           0.000           0.000  
  11305904.554 6 -39382746.208 6        45.257 6      2526.650 6         0.000  
         0.000           0.000           0.000  
  12084972.545 7 -28048744.428 7        48.393 7      -547.268 7         0.000  
         0.000           0.000           0.000  
 13 11 12  0 41  3.1038059  0  9G11G12G14G15G18G19G21G22G24
  16104712.634 3  -1172970.692 3        34.730 3      3562.516 3         0.000  
         0.000           0.000           0.000  
  14631627.198 5  -6958211.346 5        41.556 5      3994.125 5         0.000  
         0.000           0.000           0.000  
  12545595.752 7 -26830712.768 7        46.382 7      3129.832 7         0.000  
         0.000           0.000           0.000  
  14689524.101 6 -33389428.402 6        43.765 6     -1754.908 6         0.000  
         0.000           0.000           0.000  
  11173669.113 6 -46405714.399 6        44.735 6       524.351 6         0.000  
         0.000           0.000           0.000  
  16144316.681 4  -7287404.421 4        39.792 4      -257.372 4         0.000  
         0.000           0.000           0.000  
  13580267.522 5 -36312681.275 5        41.261 5     -1996.402 5         0.000  
         0.000           0.000           0.000  
  11305424.199 6 -39385270.207 6        45.465 6      2526.377 6         0.000  
         0.000           0.000           0.000  
  12085076.612 7 -28048197.436 7        48.341 7      -547.603 7         0.000  
         0.000           0.000           0.000  
 13 11 12  0 41  4.1048033  0  9G11G12G14G15G18G19G21G22G24
  16104035.318 3  -1176536.798 3        35.428 3      3562.844 3         0.000  
         0.000           0.000           0.000  
  14630866.309 5  -6962209.177 5        41.673 5      3993.873 5         0.000  
         0.000           0.000           0.000  
  12544999.490 7 -26833845.679 7        46.247 7      3129.529 7         0.000  
         0.000           0.000           0.000  
  14689858.505 6 -33387671.795 6        43.833 6     -1754.843 6         0.000  
         0.000           0.000           0.000  
  11173569.388 6 -46406239.074 6        44.799 6       524.012 6         0.000  
         0.000           0.000           0.000  
  16144366.090 4  -7287146.622 4        39.429 4      -257.688 4         0.000  
         0.000           0.000           0.000  
  13580647.118 5 -36310682.799 5        41.333 5     -1996.606 5         0.000  
         0.000           0.000           0.000  
  11304942.914 6 -39387799.015 6        45.555 6      2525.962 6         0.000  
         0.000           0.000           0.000  
  12085180.952 7 -28047648.950 7        48.449 7      -548.176 7         0.000  
         0.000           0.000           0.000  
 13 11 12  0 41  5.1038008  0  9G11G12G14G15G18G19G21G22G24
  16103359.439 3  -1180095.369 3        36.201 3      3561.741 3         0.000  
         0.000           0.000           0.000  
  14630107.012 5  -6966198.800 5        41.491 5      3993.357 5         0.000  
         0.000           0.000           0.000  
  12544404.413 7 -26836972.098 7        46.389 7      3129.407 7         0.000  
         0.000           0.000           0.000  
  14690192.062 6 -33385918.681 6        43.351 6     -1755.228 6         0.000  
         0.000           0.000           0.000  
  11173469.789 6 -46406762.264 6        44.426 6       523.425 6         0.000  
         0.000           0.000           0.000  
  16144415.721 4  -7286888.909 4        39.716 4      -258.413 4         0.000  
         0.000           0.000           0.000  
  13581026.209 5 -36308688.078 5        41.241 5     -1996.891 5         0.000  
         0.000           0.000           0.000  
  11304462.442 6 -39390322.427 6        45.438 6      2525.772 6         0.000  
         0.000           0.000           0.000  
  12085285.232 7 -28047101.046 7        48.335 7      -548.773 7         0.000  
         0.000           0.000           0.000  
 13 11 12  0 41  6.1037983  0  9G11G12G14G15G18G19G21G22G24
  16102682.411 3  -1183656.978 3        36.988 3      3561.420 3         0.000  
         0.000           0.000           0.000  
  14629347.382 5  -6970192.090 5        42.060 5      3993.090 5         0.000  
         0.000           0.000           0.000  
  12543808.886 7 -26840101.312 7        46.291 7      3129.022 7         0.000  
         0.000           0.000           0.000  
  14690525.902 6 -33384163.711 6        43.255 6     -1754.957 6         0.000  
         0.000           0.000           0.000  
  11173370.283 6 -46407285.472 6        44.490 6       522.868 6         0.000  
         0.000           0.000           0.000  
  16144465.372 4  -7286630.419 4        39.903 4      -258.588 4         0.000  
         0.000           0.000           0.000  
  13581405.746 5 -36306691.032 5        41.532 5     -1997.530 5         0.000  
         0.000           0.000           0.000  
  11303981.723 6 -39392847.889 6        45.258 6      2525.174 6         0.000  
         0.000           0.000           0.000  
  12085389.676 7 -28046551.977 7        48.308 7      -549.492 7         0.000  
         0.000           0.000           0.000  
 13 11 12  0 41  7.1037957  0  9G11G12G14G15G18G19G21G22G24
  16102005.547 3  -1187218.165 3        35.836 3      3561.616 3         0.000  
         0.000           0.000           0.000  
  14628587.653 5  -6974185.140 5        42.150 5      3992.312 5         0.000  
         0.000           0.000           0.000  
  12543213.390 7 -26843230.293 7        46.278 7      3128.793 7         0.000  
         0.000           0.000           0.000  
  14690859.947 6 -33382408.725 6        43.386 6     -1755.079 6         0.000  
         0.000           0.000           0.000  
  11173270.805 6 -46407808.255 6        44.645 6       522.624 6         0.000  
         0.000           0.000           0.000  
  16144515.006 4  -7286371.521 4        39.807 4      -259.180 4         0.000  
         0.000           0.000           0.000  
  13581785.594 5 -36304693.742 5        41.661 5     -1997.391 5         0.000  
         0.000           0.000           0.000  
  11303501.080 6 -39395372.981 6        45.424 6      2524.976 6         0.000  
         0.000           0.000           0.000  
  12085494.099 7 -28046002.386 7        48.148 7      -549.832 7         0.000  
         0.000           0.000           0.000  
 13 11 12  0 41  8.1037932  0  9G11G12G14G15G18G19G21G22G24
  16101328.568 3  -1190778.874 3        35.042 3      3559.564 3         0.000  
         0.000           0.000           0.000  
  14627828.020 5  -6978177.922 5        42.604 5      3992.789 5         0.000  
         0.000           0.000           0.000  
  12542617.977 7 -26846358.981 7        46.367 7      3128.479 7         0.000  
         0.000           0.000           0.000  
  14691193.859 6 -33380653.685 6        43.662 6     -1755.450 6         0.000  
         0.000           0.000           0.000  
  11173171.505 6 -46408330.556 6        44.924 6       522.063 6         0.000  
         0.000           0.000           0.000  
  16144564.675 4  -7286112.155 4        39.765 4      -259.971 4         0.000  
         0.000           0.000           0.000  
  13582165.546 5 -36302696.176 5        41.193 5     -1997.680 5         0.000  
         0.000           0.000           0.000  
  11303020.438 6 -39397897.689 6        45.461 6      2524.518 6         0.000  
         0.000           0.000           0.000  
  12085598.624 7 -28045452.231 7        48.218 7      -550.511 7         0.000  
         0.000           0.000           0.000  
 13 11 12  0 41  9.1047906  0  9G11G12G14G15G18G19G21G22G24
  16100650.638 3  -1194342.562 3        35.284 3      3559.738 3         0.000  
         0.000           0.000           0.000  
  14627067.816 5  -6982174.315 5        42.661 5      3992.257 5         0.000  
         0.000           0.000           0.000  
  12542021.965 7 -26849490.419 7        46.320 7      3128.069 7         0.000  
         0.000           0.000           0.000  
  14691528.123 6 -33378896.729 6        43.722 6     -1755.542 6         0.000  
         0.000           0.000           0.000  
  11173072.172 6 -46408852.827 6        45.001 6       521.525 6         0.000  
         0.000           0.000           0.000  
  16144614.500 4  -7285851.977 4        39.982 4      -260.057 4         0.000  
         0.000           0.000           0.000  
  13582545.881 5 -36300696.235 5        41.463 5     -1998.315 5         0.000  
         0.000           0.000           0.000  
  11302539.443 6 -39400424.393 6        45.554 6      2524.005 6         0.000  
         0.000           0.000           0.000  
  12085703.450 7 -28044900.867 7        48.138 7      -551.207 7         0.000  
         0.000           0.000           0.000  
 13 11 12  0 41 10.1037881  0  9G11G12G14G15G18G19G21G22G24
  16099974.106 3  -1197898.593 3        34.655 3      3558.596 3         0.000  
         0.000           0.000           0.000  
  14626309.216 5  -6986162.377 5        42.436 5      3992.058 5         0.000  
         0.000           0.000           0.000  
  12541427.346 7 -26852615.217 7        46.316 7      3127.734 7         0.000  
         0.000           0.000           0.000  
  14691861.841 6 -33377143.147 6        43.592 6     -1755.016 6         0.000  
         0.000           0.000           0.000  
  11172973.103 6 -46409373.466 6        45.016 6       520.981 6         0.000  
         0.000           0.000           0.000  
  16144664.228 4  -7285591.757 4        39.636 4      -261.028 4         0.000  
         0.000           0.000           0.000  
  13582925.682 5 -36298699.916 5        41.612 5     -1998.354 5         0.000  
         0.000           0.000           0.000  
  11302059.594 6 -39402945.551 6        45.342 6      2523.584 6         0.000  
         0.000           0.000           0.000  
  12085808.345 7 -28044349.946 7        48.474 7      -551.713 7         0.000  
         0.000           0.000           0.000  
 13 11 12  0 41 11.1047856  0  9G11G12G14G15G18G19G21G22G24
  16099296.107 3  -1201461.233 3        34.292 3      3558.604 3         0.000  
         0.000           0.000           0.000  
  14625549.059 5  -6990158.103 5        42.393 5      3991.897 5         0.000  
         0.000           0.000           0.000  
  12540831.511 7 -26855745.950 7        46.254 7      3127.493 7         0.000  
         0.000           0.000           0.000  
  14692196.176 6 -33375385.950 6        43.798 6     -1755.337 6         0.000  
         0.000           0.000           0.000  
  11172873.848 6 -46409894.639 6        44.850 6       520.665 6         0.000  
         0.000           0.000           0.000  
  16144713.977 4  -7285330.527 4        39.925 4      -261.001 4         0.000  
         0.000           0.000           0.000  
  13583306.431 5 -36296699.263 5        41.703 5     -1998.891 5         0.000  
         0.000           0.000           0.000  
  11301578.889 6 -39405471.314 6        45.594 6      2523.219 6         0.000  
         0.000           0.000           0.000  
  12085913.664 7 -28043797.318 7        48.517 7      -552.243 7         0.000  
         0.000           0.000           0.000  
 13 11 12  0 41 12.1037830  0  9G11G12G14G15G18G19G21G22G24
  16098619.513 3  -1205016.439 3        35.093 3      3558.693 3         0.000  
         0.000           0.000           0.000  
  14624790.224 5  -6994145.749 5        42.330 5      3991.545 5         0.000  
         0.000           0.000           0.000  
  12540236.835 7 -26858870.321 7        46.197 7      3127.335 7         0.000  
         0.000           0.000           0.000  
  14692529.919 6 -33373632.381 6        43.849 6     -1755.341 6         0.000  
         0.000           0.000           0.000  
  11172774.946 6 -46410414.481 6        44.583 6       520.135 6         0.000  
         0.000           0.000           0.000  
  16144764.176 5  -7285069.505 5        40.263 5      -261.232 5         0.000  
         0.000           0.000           0.000  
  13583686.559 5 -36294702.505 5        41.696 5     -1998.987 5         0.000  
         0.000           0.000           0.000  
  11301099.243 6 -39407991.783 6        45.369 6      2522.659 6         0.000  
         0.000           0.000           0.000  
  12086018.805 7 -28043245.412 7        48.488 7      -552.816 7         0.000  
         0.000           0.000           0.000  
 13 11 12  0 41 13.1047805  0  9G11G12G14G15G18G19G21G22G24
  16097941.571 3  -1208578.363 3        35.128 3      3557.320 3         0.000  
         0.000           0.000           0.000  
  14624029.887 5  -6998141.183 5        42.183 5      3990.836 5         0.000  
         0.000           0.000           0.000  
  12539640.920 6 -26862000.750 6        45.926 6      3126.884 6         0.000  
         0.000           0.000           0.000  
  14692864.450 6 -33371875.338 6        43.723 6     -1755.393 6         0.000  
         0.000           0.000           0.000  
  11172675.853 6 -46410934.969 6        44.472 6       519.419 6         0.000  
         0.000           0.000           0.000  
  16144814.402 5  -7284807.597 5        40.400 5      -262.292 5         0.000  
         0.000           0.000           0.000  
  13584067.523 5 -36292701.547 5        41.454 5     -1999.415 5         0.000  
         0.000           0.000           0.000  
  11300618.777 6 -39410516.996 6        45.424 6      2522.436 6         0.000  
         0.000           0.000           0.000  
  12086124.235 7 -28042691.922 7        48.260 7      -553.291 7         0.000  
         0.000           0.000           0.000  
 13 11 12  0 41 14.1037780  0  9G11G12G14G15G18G19G21G22G24
  16097264.675 3  -1212132.702 3        35.047 3      3557.244 3         0.000  
         0.000           0.000           0.000  
  14623270.925 5  -7002128.356 5        41.968 5      3990.999 5         0.000  
         0.000           0.000           0.000  
  12539046.284 7 -26865124.657 7        46.013 7      3126.794 7         0.000  
         0.000           0.000           0.000  
  14693198.284 6 -33370121.761 6        44.023 6     -1755.511 6         0.000  
         0.000           0.000           0.000  
  11172577.106 6 -46411453.966 6        44.479 6       519.572 6         0.000  
         0.000           0.000           0.000  
  16144864.709 5  -7284545.765 5        40.222 5      -262.119 5         0.000  
         0.000           0.000           0.000  
  13584447.824 5 -36290704.337 5        41.858 5     -1999.228 5         0.000  
         0.000           0.000           0.000  
  11300139.323 6 -39413036.750 6        45.681 6      2522.176 6         0.000  
         0.000           0.000           0.000  
  12086229.415 7 -28042138.976 7        48.228 7      -553.812 7         0.000  
         0.000           0.000           0.000  
 13 11 12  0 41 15.1047754  0  9G11G12G14G15G18G19G21G22G24
  16096586.634 3  -1215693.765 3        35.709 3      3557.026 3         0.000  
         0.000           0.000           0.000  
  14622510.165 5  -7006123.297 5        41.843 5      3990.749 5         0.000  
         0.000           0.000           0.000  
  12538450.477 7 -26868254.585 7        46.033 7      3126.718 7         0.000  
         0.000           0.000           0.000  
  14693532.831 6 -33368364.672 6        44.167 6     -1755.633 6         0.000  
         0.000           0.000           0.000  
  11172478.239 6 -46411973.587 6        44.661 6       518.668 6         0.000  
         0.000           0.000           0.000  
  16144915.281 5  -7284282.986 5        40.640 5      -262.795 5         0.000  
         0.000           0.000           0.000  
  13584829.042 5 -36288702.881 5        41.980 5     -1999.596 5         0.000  
         0.000           0.000           0.000  
  11299658.812 6 -39415561.202 6        45.572 6      2521.650 6         0.000  
         0.000           0.000           0.000  
  12086334.736 7 -28041584.417 7        48.013 7      -554.527 7         0.000  
         0.000           0.000           0.000  
 13 11 12  0 41 16.1037729  0  9G11G12G14G15G18G19G21G22G24
  16095910.332 3  -1219247.122 3        35.162 3      3556.988 3         0.000  
         0.000           0.000           0.000  
  14621751.190 5  -7010109.897 5        41.911 5      3990.493 5         0.000  
         0.000           0.000           0.000  
  12537856.037 7 -26871377.914 7        46.137 7      3126.194 7         0.000  
         0.000           0.000           0.000  
  14693866.724 6 -33366610.966 6        44.055 6     -1755.199 6         0.000  
         0.000           0.000           0.000  
  11172379.577 6 -46412491.615 6        44.517 6       518.299 6         0.000  
         0.000           0.000           0.000  
  16144965.770 5  -7284020.210 5        40.535 5      -263.342 5         0.000  
         0.000           0.000           0.000  
  13585209.667 5 -36286705.086 5        41.937 5     -1999.909 5         0.000  
         0.000           0.000           0.000  
  11299179.475 6 -39418080.118 6        45.598 6      2520.993 6         0.000  
         0.000           0.000           0.000  
  12086439.980 7 -28041030.336 7        48.014 7      -554.909 7         0.000  
         0.000           0.000           0.000  
 13 11 12  0 41 17.1047704  0  9G11G12G14G15G18G19G21G22G24
  16095233.109 3  -1222807.059 3        34.973 3      3556.393 3         0.000  
         0.000           0.000           0.000  
  14620990.667 5  -7014104.090 5        41.878 5      3989.807 5         0.000  
         0.000           0.000           0.000  
  12537260.440 7 -26874507.099 7        46.216 7      3125.896 7         0.000  
         0.000           0.000           0.000  
  14694201.179 6 -33364853.576 6        43.859 6     -1755.751 6         0.000  
         0.000           0.000           0.000  
  11172280.930 6 -46413010.098 6        44.863 6       517.618 6         0.000  
         0.000           0.000           0.000  
  16145016.422 5  -7283756.324 5        40.937 5      -263.898 5         0.000  
         0.000           0.000           0.000  
  13585591.172 5 -36284702.891 5        42.119 5     -2000.601 5         0.000  
         0.000           0.000           0.000  
  11298699.370 6 -39420603.565 6        45.643 6      2520.637 6         0.000  
         0.000           0.000           0.000  
  12086545.741 7 -28040474.470 7        48.346 7      -555.749 7         0.000  
         0.000           0.000           0.000  
 13 11 12  0 41 18.1037678  0  9G11G12G14G15G18G19G21G22G24
  16094557.275 3  -1226359.156 3        36.836 3      3555.462 3         0.000  
         0.000           0.000           0.000  
  14620231.744 5  -7018089.827 5        41.905 5      3989.585 5         0.000  
         0.000           0.000           0.000  
  12536666.310 7 -26877629.545 7        46.141 7      3125.236 7         0.000  
         0.000           0.000           0.000  
  14694534.907 6 -33363099.435 6        43.932 6     -1756.013 6         0.000  
         0.000           0.000           0.000  
  11172182.858 6 -46413526.876 6        45.339 6       517.031 6         0.000  
         0.000           0.000           0.000  
  16145066.823 5  -7283492.308 5        41.001 5      -264.531 5         0.000  
         0.000           0.000           0.000  
  13585972.010 5 -36282704.211 5        42.106 5     -2001.065 5         0.000  
         0.000           0.000           0.000  
  11298220.258 6 -39423121.359 6        45.797 6      2519.955 6         0.000  
         0.000           0.000           0.000  
  12086651.533 7 -28039918.952 7        48.370 7      -556.496 7         0.000  
         0.000           0.000           0.000  
 13 11 12  0 41 19.1037653  0  9G11G12G14G15G18G19G21G22G24
  16093881.284 3  -1229914.239 3        34.755 3      3554.581 3         0.000  
         0.000           0.000           0.000  
  14619472.179 5  -7022079.160 5        41.787 5      3989.187 5         0.000  
         0.000           0.000           0.000  
  12536071.618 7 -26880754.734 7        46.422 7      3124.889 7         0.000  
         0.000           0.000           0.000  
  14694869.031 6 -33361343.377 6        43.474 6     -1756.193 6         0.000  
         0.000           0.000           0.000  
  11172084.846 6 -46414043.594 6        45.078 6       516.500 6         0.000  
         0.000           0.000           0.000  
  16145117.558 5  -7283227.453 5        40.966 5      -265.213 5         0.000  
         0.000           0.000           0.000  
  13586353.389 5 -36280703.138 5        42.298 5     -2001.201 5         0.000  
         0.000           0.000           0.000  
  11297740.896 6 -39425641.157 6        45.646 6      2519.470 6         0.000  
         0.000           0.000           0.000  
  12086757.643 7 -28039362.220 7        48.370 7      -557.120 7         0.000  
         0.000           0.000           0.000  
 13 11 12  0 41 20.1047628  0  9G11G12G14G15G18G19G21G22G24
  16093204.320 3  -1233472.422 3        35.393 3      3554.433 3         0.000  
         0.000           0.000           0.000  
  14618712.420 5  -7026072.214 5        42.789 5      3988.958 5         0.000  
         0.000           0.000           0.000  
  12535476.474 7 -26883882.766 7        46.078 7      3124.778 7         0.000  
         0.000           0.000           0.000  
  14695203.395 6 -33359585.521 6        43.276 6     -1756.075 6         0.000  
         0.000           0.000           0.000  
  11171986.903 6 -46414560.355 6        45.317 6       515.970 6         0.000  
         0.000           0.000           0.000  
  16145168.525 5  -7282961.883 5        41.215 5      -265.495 5         0.000  
         0.000           0.000           0.000  
  13586735.217 5 -36278699.786 5        42.025 5     -2001.643 5         0.000  
         0.000           0.000           0.000  
  11297261.111 7 -39428163.073 7        46.045 7      2519.011 7         0.000  
         0.000           0.000           0.000  
  12086863.871 7 -28038804.374 7        48.345 7      -557.445 7         0.000  
         0.000           0.000           0.000  
 13 11 12  0 41 21.1037602  0  9G11G12G14G15G18G19G21G22G24
  16092528.753 3  -1237022.960 3        36.118 3      3553.595 3         0.000  
         0.000           0.000           0.000  
  14617954.338 5  -7030056.982 5        42.884 5      3988.293 5         0.000  
         0.000           0.000           0.000  
  12534882.475 7 -26887004.236 7        46.273 7      3124.241 7         0.000  
         0.000           0.000           0.000  
  14695536.914 6 -33357831.072 6        43.098 6     -1756.193 6         0.000  
         0.000           0.000           0.000  
  11171889.056 6 -46415075.595 6        44.688 6       515.317 6         0.000  
         0.000           0.000           0.000  
  16145219.618 5  -7282696.323 5        40.856 5      -266.038 5         0.000  
         0.000           0.000           0.000  
  13587116.252 5 -36276700.127 5        42.482 5     -2001.678 5         0.000  
         0.000           0.000           0.000  
  11296782.427 6 -39430679.504 6        45.527 6      2518.739 6         0.000  
         0.000           0.000           0.000  
  12086969.988 7 -28038247.036 7        48.246 7      -558.138 7         0.000  
         0.000           0.000           0.000  
 13 11 12  0 41 22.1047577  0  9G11G12G14G15G18G19G21G22G24
  16091852.273 3  -1240580.183 3        36.093 3      3553.095 3         0.000  
         0.000           0.000           0.000  
  14617195.060 6  -7034049.459 6        43.099 6      3988.837 6         0.000  
         0.000           0.000           0.000  
  12534287.304 6 -26890131.691 6        45.953 6      3123.897 6         0.000  
         0.000           0.000           0.000  
  14695871.162 5 -33356073.092 5        42.859 5     -1755.839 5         0.000  
         0.000           0.000           0.000  
  11171790.887 6 -46415591.403 6        45.129 6       515.299 6         0.000  
         0.000           0.000           0.000  
  16145270.739 5  -7282429.813 5        41.024 5      -266.169 5         0.000  
         0.000           0.000           0.000  
  13587498.072 5 -36274696.204 5        42.025 5     -2002.083 5         0.000  
         0.000           0.000           0.000  
  11296302.835 6 -39433200.587 6        45.937 6      2518.431 6         0.000  
         0.000           0.000           0.000  
  12087076.274 7 -28037688.035 7        47.973 7      -558.774 7         0.000  
         0.000           0.000           0.000  
 13 11 12  0 41 23.1037552  0  9G11G12G14G15G18G19G21G22G24
  16091177.470 3  -1244129.828 3        36.651 3      3553.165 3         0.000  
         0.000           0.000           0.000  
  14616437.217 6  -7038033.735 6        43.301 6      3988.129 6         0.000  
         0.000           0.000           0.000  
  12533693.329 7 -26893252.672 7        46.213 7      3124.033 7         0.000  
         0.000           0.000           0.000  
  14696204.831 6 -33354318.612 6        43.136 6     -1756.229 6         0.000  
         0.000           0.000           0.000  
  11171692.980 6 -46416105.755 6        44.898 6       514.657 6         0.000  
         0.000           0.000           0.000  
  16145321.689 5  -7282163.411 5        40.796 5      -266.854 5         0.000  
         0.000           0.000           0.000  
  13587879.059 5 -36272696.052 5        42.215 5     -2002.451 5         0.000  
         0.000           0.000           0.000  
  11295824.245 6 -39435716.272 6        45.861 6      2518.097 6         0.000  
         0.000           0.000           0.000  
  12087182.332 7 -28037129.653 7        48.093 7      -559.074 7         0.000  
         0.000           0.000           0.000  
 13 11 12  0 41 24.1047527  0  9G11G12G14G15G18G19G21G22G24
  16090500.655 3  -1247686.199 3        36.410 3      3553.477 3         0.000  
         0.000           0.000           0.000  
  14615677.985 6  -7042025.778 6        43.350 6      3987.716 6         0.000  
         0.000           0.000           0.000  
  12533098.186 7 -26896379.683 7        46.222 7      3123.845 7         0.000  
         0.000           0.000           0.000  
  14696539.205 6 -33352560.640 6        43.583 6     -1756.210 6         0.000  
         0.000           0.000           0.000  
  11171595.014 6 -46416620.747 6        45.150 6       514.539 6         0.000  
         0.000           0.000           0.000  
  16145372.871 5  -7281896.091 5        40.800 5      -267.188 5         0.000  
         0.000           0.000           0.000  
  13588260.763 5 -36270691.699 5        42.439 5     -2002.426 5         0.000  
         0.000           0.000           0.000  
  11295344.754 6 -39438236.649 6        45.641 6      2517.377 6         0.000  
         0.000           0.000           0.000  
  12087288.787 7 -28036569.651 7        48.009 7      -559.698 7         0.000  
         0.000           0.000           0.000  
 13 11 12  0 41 25.1037501  0  9G11G12G14G15G18G19G21G22G24
  16089825.347 3  -1251235.146 3        36.416 3      3552.821 3         0.000  
         0.000           0.000           0.000  
  14614920.166 6  -7046009.705 6        43.177 6      3988.034 6         0.000  
         0.000           0.000           0.000  
  12532504.420 7 -26899500.298 7        46.273 7      3123.788 7         0.000  
         0.000           0.000           0.000  
  14696873.017 6 -33350806.270 6        43.599 6     -1756.039 6         0.000  
         0.000           0.000           0.000  
  11171497.328 6 -46417134.379 6        45.163 6       514.123 6         0.000  
         0.000           0.000           0.000  
  16145423.632 5  -7281628.981 5        40.073 5      -267.441 5         0.000  
         0.000           0.000           0.000  
  13588641.669 5 -36268691.197 5        42.463 5     -2002.361 5         0.000  
         0.000           0.000           0.000  
  11294866.210 6 -39440751.731 6        45.787 6      2517.573 6         0.000  
         0.000           0.000           0.000  
  12087395.186 7 -28036010.343 7        48.148 7      -560.044 7         0.000  
         0.000           0.000           0.000  
 13 11 12  0 41 26.1047476  0  9G11G12G14G15G18G19G21G22G24
  16089148.704 3  -1254790.935 3        36.223 3      3552.115 3         0.000  
         0.000           0.000           0.000  
  14614160.625 5  -7050001.551 5        42.431 5      3987.606 5         0.000  
         0.000           0.000           0.000  
  12531909.510 7 -26902627.108 7        46.008 7      3123.637 7         0.000  
         0.000           0.000           0.000  
  14697207.607 6 -33349048.554 6        43.779 6     -1755.719 6         0.000  
         0.000           0.000           0.000  
  11171399.601 6 -46417648.773 6        45.212 6       513.499 6         0.000  
         0.000           0.000           0.000  
  16145474.717 5  -7281361.106 5        40.205 5      -267.677 5         0.000  
         0.000           0.000           0.000  
  13589023.428 5 -36266686.629 5        42.240 5     -2002.833 5         0.000  
         0.000           0.000           0.000  
  11294386.674 6 -39443271.657 6        45.647 6      2517.171 6         0.000  
         0.000           0.000           0.000  
  12087501.890 7 -28035449.582 7        48.156 7      -560.313 7         0.000  
         0.000           0.000           0.000  
 13 11 12  0 41 27.1037451  0  9G11G12G14G15G18G19G21G22G24
  16088472.811 3  -1258339.283 3        35.346 3      3552.030 3         0.000  
         0.000           0.000           0.000  
  14613402.811 6  -7053985.299 6        43.181 6      3987.577 6         0.000  
         0.000           0.000           0.000  
  12531315.685 7 -26905747.544 7        46.181 7      3123.527 7         0.000  
         0.000           0.000           0.000  
  14697541.469 6 -33347294.449 6        43.793 6     -1755.815 6         0.000  
         0.000           0.000           0.000  
  11171301.928 6 -46418161.836 6        45.187 6       513.320 6         0.000  
         0.000           0.000           0.000  
  16145525.272 5  -7281093.456 5        40.115 5      -267.947 5         0.000  
         0.000           0.000           0.000  
  13589404.269 5 -36264685.960 5        42.119 5     -2002.735 5         0.000  
         0.000           0.000           0.000  
  11293908.189 6 -39445786.309 6        45.574 6      2517.060 6         0.000  
         0.000           0.000           0.000  
  12087608.533 7 -28034889.521 7        48.397 7      -560.683 7         0.000  
         0.000           0.000           0.000  
 13 11 12  0 41 28.1047425  0  9G11G12G14G15G18G19G21G22G24
  16087795.334 2  -1261894.325 2        33.613 2      3551.434 2         0.000  
         0.000           0.000           0.000  
  14612643.383 6  -7057976.776 6        43.129 6      3987.479 6         0.000  
         0.000           0.000           0.000  
  12530720.782 7 -26908873.977 7        46.140 7      3123.001 7         0.000  
         0.000           0.000           0.000  
  14697875.919 6 -33345536.817 6        43.929 6     -1755.822 6         0.000  
         0.000           0.000           0.000  
  11171204.148 6 -46418675.474 6        45.108 6       512.726 6         0.000  
         0.000           0.000           0.000  
  16145575.953 4  -7280824.835 4        39.914 4      -268.972 4         0.000  
         0.000           0.000           0.000  
  13589785.898 5 -36262681.028 5        42.131 5     -2003.243 5         0.000  
         0.000           0.000           0.000  
  11293428.824 6 -39448305.603 6        45.522 6      2516.422 6         0.000  
         0.000           0.000           0.000  
  12087715.499 7 -28034327.804 7        48.207 7      -561.437 7         0.000  
         0.000           0.000           0.000  
 13 11 12  0 41 29.1047400  0  9G11G12G14G15G18G19G21G22G24
  16087118.468 3  -1265445.286 3        35.257 3      3551.259 3         0.000  
         0.000           0.000           0.000  
  14611884.848 5  -7061963.919 5        42.939 5      3987.339 5         0.000  
         0.000           0.000           0.000  
  12530126.511 7 -26911996.931 7        46.239 7      3122.649 7         0.000  
         0.000           0.000           0.000  
  14698210.141 6 -33343780.803 6        43.908 6     -1756.116 6         0.000  
         0.000           0.000           0.000  
  11171106.551 6 -46419188.072 6        45.000 6       512.297 6         0.000  
         0.000           0.000           0.000  
  16145626.593 4  -7280555.957 4        39.974 4      -269.547 4         0.000  
         0.000           0.000           0.000  
  13590167.212 5 -36260677.754 5        42.249 5     -2003.622 5         0.000  
         0.000           0.000           0.000  
  11292950.162 6 -39450821.900 6        45.766 6      2516.100 6         0.000  
         0.000           0.000           0.000  
  12087822.429 7 -28033766.006 7        48.312 7      -562.288 7         0.000  
         0.000           0.000           0.000  
 13 11 12  0 41 30.1037375  0  9G11G12G14G15G18G19G21G22G24
  16086443.056 3  -1268992.135 3        35.294 3      3550.939 3         0.000  
         0.000           0.000           0.000  
  14611127.132 6  -7065946.740 6        43.306 6      3986.594 6         0.000  
         0.000           0.000           0.000  
  12529532.802 7 -26915116.446 7        46.197 7      3122.440 7         0.000  
         0.000           0.000           0.000  
  14698543.911 6 -33342026.464 6        43.913 6     -1756.138 6         0.000  
         0.000           0.000           0.000  
  11171009.086 6 -46419699.653 6        44.827 6       511.893 6         0.000  
         0.000           0.000           0.000  
  16145677.707 5  -7280286.855 5        40.503 5      -269.427 5         0.000  
         0.000           0.000           0.000  
  13590548.200 5 -36258676.159 5        41.940 5     -2003.814 5         0.000  
         0.000           0.000           0.000  
  11292471.920 6 -39453335.238 6        45.427 6      2515.457 6         0.000  
         0.000           0.000           0.000  
  12087929.267 7 -28033204.174 7        48.090 7      -562.763 7         0.000  
         0.000           0.000           0.000  
 13 11 12  0 41 31.1047349  0  9G11G12G14G15G18G19G21G22G24
  16085766.424 3  -1272545.657 3        35.122 3      3549.862 3         0.000  
         0.000           0.000           0.000  
  14610367.861 6  -7069937.281 6        43.272 6      3986.253 6         0.000  
         0.000           0.000           0.000  
  12528937.845 7 -26918241.942 7        46.197 7      3122.161 7         0.000  
         0.000           0.000           0.000  
  14698878.410 6 -33340268.560 6        44.023 6     -1756.039 6         0.000  
         0.000           0.000           0.000  
  11170911.555 6 -46420211.781 6        44.965 6       511.418 6         0.000  
         0.000           0.000           0.000  
  16145729.065 5  -7280016.771 5        40.407 5      -269.806 5         0.000  
         0.000           0.000           0.000  
  13590929.826 5 -36256670.297 5        41.901 5     -2003.868 5         0.000  
         0.000           0.000           0.000  
  11291992.659 6 -39455853.214 6        45.582 6      2515.144 6         0.000  
         0.000           0.000           0.000  
  12088036.384 7 -28032640.687 7        48.111 7      -563.063 7         0.000  
         0.000           0.000           0.000  
 13 11 12  0 41 32.1037324  0  9G11G12G14G15G18G19G21G22G24
  16085092.151 3  -1276091.609 3        36.313 3      3548.746 3         0.000  
         0.000           0.000           0.000  
  14609610.186 6  -7073919.604 6        43.420 6      3986.435 6         0.000  
         0.000           0.000           0.000  
  12528344.309 6 -26921360.920 6        45.974 6      3122.240 6         0.000  
         0.000           0.000           0.000  
  14699212.263 6 -33338514.151 6        43.964 6     -1755.846 6         0.000  
         0.000           0.000           0.000  
  11170814.354 6 -46420722.442 6        44.995 6       510.858 6         0.000  
         0.000           0.000           0.000  
  16145780.287 5  -7279746.764 5        40.766 5      -270.296 5         0.000  
         0.000           0.000           0.000  
  13591310.810 5 -36254668.172 5        42.145 5     -2004.067 5         0.000  
         0.000           0.000           0.000  
  11291514.386 6 -39458365.759 6        45.295 6      2514.976 6         0.000  
         0.000           0.000           0.000  
  12088143.432 7 -28032077.791 7        48.275 7      -563.748 7         0.000  
         0.000           0.000           0.000  
 13 11 12  0 41 33.1047299  0  9G11G12G14G15G18G19G21G22G24
  16084416.313 3  -1279644.189 3        36.568 3      3549.101 3         0.000  
         0.000           0.000           0.000  
  14608851.045 6  -7077909.593 6        43.533 6      3985.922 6         0.000  
         0.000           0.000           0.000  
  12527749.659 7 -26924485.870 7        46.189 7      3121.662 7         0.000  
         0.000           0.000           0.000  
  14699546.888 6 -33336756.154 6        43.787 6     -1756.270 6         0.000  
         0.000           0.000           0.000  
  11170716.912 6 -46421233.654 6        44.927 6       510.654 6         0.000  
         0.000           0.000           0.000  
  16145831.710 5  -7279475.762 5        40.466 5      -271.390 5         0.000  
         0.000           0.000           0.000  
  13591692.552 5 -36252661.776 5        41.444 5     -2004.415 5         0.000  
         0.000           0.000           0.000  
  11291035.116 6 -39460882.939 6        45.430 6      2514.410 6         0.000  
         0.000           0.000           0.000  
  12088250.923 7 -28031513.195 7        48.137 7      -564.387 7         0.000  
         0.000           0.000           0.000  
 13 11 12  0 41 34.1037274  0  9G11G12G14G15G18G19G21G22G24
  16083741.835 3  -1283189.182 3        36.593 3      3548.751 3         0.000  
         0.000           0.000           0.000  
  14608093.369 6  -7081891.354 6        43.542 6      3985.574 6         0.000  
         0.000           0.000           0.000  
  12527156.273 7 -26927604.306 7        46.469 7      3121.405 7         0.000  
         0.000           0.000           0.000  
  14699880.862 6 -33335001.643 6        43.770 6     -1756.493 6         0.000  
         0.000           0.000           0.000  
  11170619.832 6 -46421743.385 6        44.901 6       509.843 6         0.000  
         0.000           0.000           0.000  
  16145883.185 4  -7279204.865 4        39.798 4      -271.634 4         0.000  
         0.000           0.000           0.000  
  13592073.609 5 -36250659.102 5        41.909 5     -2004.720 5         0.000  
         0.000           0.000           0.000  
  11290556.822 6 -39463394.686 6        45.358 6      2514.166 6         0.000  
         0.000           0.000           0.000  
  12088358.274 7 -28030949.171 7        48.281 7      -564.873 7         0.000  
         0.000           0.000           0.000  
 13 11 12  0 41 35.1047248  0  9G11G12G14G15G18G19G21G22G24
  16083065.589 3  -1286740.779 3        36.171 3      3548.115 3         0.000  
         0.000           0.000           0.000  
  14607334.125 6  -7085880.782 6        43.341 6      3985.194 6         0.000  
         0.000           0.000           0.000  
  12526561.800 7 -26930728.664 7        46.422 7      3121.125 7         0.000  
         0.000           0.000           0.000  
  14700215.505 6 -33333243.526 6        43.598 6     -1756.410 6         0.000  
         0.000           0.000           0.000  
  11170522.748 6 -46422253.632 6        44.785 6       509.283 6         0.000  
         0.000           0.000           0.000  
  16145934.481 4  -7278932.929 4        39.228 4      -271.698 4         0.000  
         0.000           0.000           0.000  
  13592455.385 5 -36248652.119 5        41.977 5     -2005.177 5         0.000  
         0.000           0.000           0.000  
  11290077.677 6 -39465911.024 6        45.329 6      2513.622 6         0.000  
         0.000           0.000           0.000  
  12088466.104 7 -28030383.396 7        48.451 7      -565.458 7         0.000  
         0.000           0.000           0.000  
 13 11 12  0 41 36.1037223  0  9G11G12G14G15G18G19G21G22G24
  16082390.813 3  -1290284.771 3        36.209 3      3547.510 3         0.000  
         0.000           0.000           0.000  
  14606576.372 5  -7089861.909 5        42.964 5      3985.090 5         0.000  
         0.000           0.000           0.000  
  12525968.529 7 -26933846.468 7        46.272 7      3120.608 7         0.000  
         0.000           0.000           0.000  
  14700549.538 6 -33331488.821 6        43.770 6     -1756.599 6         0.000  
         0.000           0.000           0.000  
  11170425.839 6 -46422762.356 6        44.990 6       508.949 6         0.000  
         0.000           0.000           0.000  
  16145985.692 4  -7278661.029 4        39.279 4      -271.977 4         0.000  
         0.000           0.000           0.000  
  13592836.414 5 -36246648.835 5        42.005 5     -2005.461 5         0.000  
         0.000           0.000           0.000  
  11289599.665 6 -39468421.884 6        45.576 6      2512.935 6         0.000  
         0.000           0.000           0.000  
  12088573.876 7 -28029818.162 7        48.618 7      -566.103 7         0.000  
         0.000           0.000           0.000  
 13 11 12  0 41 37.1047198  0  9G11G12G14G15G18G19G21G22G24
  16081714.970 3  -1293835.378 3        35.816 3      3546.850 3         0.000  
         0.000           0.000           0.000  
  14605817.081 6  -7093850.733 6        43.317 6      3984.678 6         0.000  
         0.000           0.000           0.000  
  12525374.155 7 -26936970.224 7        46.298 7      3120.400 7         0.000  
         0.000           0.000           0.000  
  14700884.080 6 -33329730.556 6        43.969 6     -1756.530 6         0.000  
         0.000           0.000           0.000  
  11170328.934 6 -46423271.619 6        44.999 6       508.414 6         0.000  
         0.000           0.000           0.000  
  16146037.031 4  -7278388.130 4        39.275 4      -272.654 4         0.000  
         0.000           0.000           0.000  
  13593218.245 5 -36244641.247 5        41.938 5     -2005.644 5         0.000  
         0.000           0.000           0.000  
  11289120.821 6 -39470937.360 6        45.340 6      2512.774 6         0.000  
         0.000           0.000           0.000  
  12088681.827 7 -28029251.235 7        48.320 7      -566.663 7         0.000  
         0.000           0.000           0.000  
 13 11 12  0 41 38.1047172  0  9G11G12G14G15G18G19G21G22G24
  16081040.052 3  -1297381.893 3        36.161 3      3545.919 3         0.000  
         0.000           0.000           0.000  
  14605058.832 6  -7097835.200 6        43.477 6      3984.211 6         0.000  
         0.000           0.000           0.000  
  12524780.460 7 -26940090.495 7        46.243 7      3120.203 7         0.000  
         0.000           0.000           0.000  
  14701218.370 6 -33327973.897 6        43.698 6     -1756.683 6         0.000  
         0.000           0.000           0.000  
  11170232.245 6 -46423779.814 6        45.084 6       508.079 6         0.000  
         0.000           0.000           0.000  
  16146088.099 4  -7278114.937 4        38.957 4      -273.394 4         0.000  
         0.000           0.000           0.000  
  13593599.771 5 -36242635.306 5        41.643 5     -2005.360 5         0.000  
         0.000           0.000           0.000  
  11288642.693 6 -39473449.827 6        45.423 6      2512.422 6         0.000  
         0.000           0.000           0.000  
  12088789.611 7 -28028684.225 7        48.196 7      -567.299 7         0.000  
         0.000           0.000           0.000  
 13 11 12  0 41 39.1047147  0  9G11G12G14G15G18G19G21G22G24
  16080364.910 3  -1300927.896 3        35.531 3      3544.790 3         0.000  
         0.000           0.000           0.000  
  14604300.768 6  -7101819.355 6        43.682 6      3983.958 6         0.000  
         0.000           0.000           0.000  
  12524186.809 7 -26943210.456 7        46.305 7      3119.800 7         0.000  
         0.000           0.000           0.000  
  14701552.626 6 -33326217.164 6        43.571 6     -1756.689 6         0.000  
         0.000           0.000           0.000  
  11170135.658 6 -46424287.502 6        44.907 6       507.392 6         0.000  
         0.000           0.000           0.000  
  16146139.420 4  -7277841.289 4        39.417 4      -273.921 4         0.000  
         0.000           0.000           0.000  
  13593981.322 5 -36240629.059 5        41.486 5     -2006.393 5         0.000  
         0.000           0.000           0.000  
  11288164.493 6 -39475961.862 6        45.381 6      2511.796 6         0.000  
         0.000           0.000           0.000  
  12088897.537 7 -28028116.639 7        48.126 7      -567.881 7         0.000  
         0.000           0.000           0.000  
 13 11 12  0 41 40.1047122  0  9G11G12G14G15G18G19G21G22G24
  16079689.646 3  -1304473.323 3        35.328 3      3545.584 3         0.000  
         0.000           0.000           0.000  
  14603543.133 6  -7105803.149 6        43.590 6      3983.643 6         0.000  
         0.000           0.000           0.000  
  12523593.258 7 -26946330.052 7        46.296 7      3119.516 7         0.000  
         0.000           0.000           0.000  
  14701886.879 6 -33324460.286 6        43.861 6     -1756.825 6         0.000  
         0.000           0.000           0.000  
  11170039.076 6 -46424794.646 6        44.567 6       506.890 6         0.000  
         0.000           0.000           0.000  
  16146190.864 4  -7277567.082 4        38.751 4      -274.563 4         0.000  
         0.000           0.000           0.000  
  13594362.915 5 -36238622.443 5        41.234 5     -2007.208 5         0.000  
         0.000           0.000           0.000  
  11287686.525 6 -39478473.397 6        45.486 6      2511.076 6         0.000  
         0.000           0.000           0.000  
  12089005.638 7 -28027548.405 7        48.055 7      -568.435 7         0.000  
         0.000           0.000           0.000  
 13 11 12  0 41 41.1037097  0  9G11G12G14G15G18G19G21G22G24
  16079014.918 3  -1308014.694 3        36.049 3      3544.773 3         0.000  
         0.000           0.000           0.000  
  14602786.241 6  -7109782.621 6        44.009 6      3983.414 6         0.000  
         0.000           0.000           0.000  
  12523000.448 7 -26949446.183 7        46.489 7      3119.019 7         0.000  
         0.000           0.000           0.000  
  14702220.877 6 -33322705.040 6        43.873 6     -1756.983 6         0.000  
         0.000           0.000           0.000  
  11169942.673 6 -46425300.744 6        44.736 6       506.313 6         0.000  
         0.000           0.000           0.000  
  16146242.006 4  -7277292.623 4        38.486 4      -274.871 4         0.000  
         0.000           0.000           0.000  
  13594744.303 5 -36236617.489 5        41.443 5     -2007.135 5         0.000  
         0.000           0.000           0.000  
  11287209.182 6 -39480981.947 6        45.290 6      2510.820 6         0.000  
         0.000           0.000           0.000  
  12089113.682 7 -28026980.128 7        48.210 7      -569.178 7         0.000  
         0.000           0.000           0.000  
 13 11 12  0 41 42.1047071  0  9G11G12G14G15G18G19G21G22G24
  16078339.330 3  -1311562.626 3        36.604 3      3543.770 3         0.000  
         0.000           0.000           0.000  
  14602027.949 6  -7113769.732 6        43.694 6      3983.202 6         0.000  
         0.000           0.000           0.000  
  12522406.514 7 -26952568.231 7        46.486 7      3118.782 7         0.000  
         0.000           0.000           0.000  
  14702555.737 6 -33320946.195 6        43.588 6     -1757.064 6         0.000  
         0.000           0.000           0.000  
  11169846.040 6 -46425807.344 6        44.886 6       505.622 6         0.000  
         0.000           0.000           0.000  
  16146293.319 4  -7277017.111 4        38.333 4      -275.109 4         0.000  
         0.000           0.000           0.000  
  13595126.419 5 -36234608.222 5        41.488 5     -2007.783 5         0.000  
         0.000           0.000           0.000  
  11286730.903 6 -39483495.065 6        45.282 6      2510.496 6         0.000  
         0.000           0.000           0.000  
  12089222.235 7 -28026410.115 7        48.322 7      -569.860 7         0.000  
         0.000           0.000           0.000  
 13 11 12  0 41 43.1037046  0  9G11G12G14G15G18G19G21G22G24
  16077664.966 3  -1315103.077 3        36.254 3      3543.997 3         0.000  
         0.000           0.000           0.000  
  14601271.023 6  -7117748.698 6        43.541 6      3982.804 6         0.000  
         0.000           0.000           0.000  
  12521813.732 7 -26955683.865 7        46.324 7      3118.699 7         0.000  
         0.000           0.000           0.000  
  14702889.757 6 -33319190.904 6        43.454 6     -1756.900 6         0.000  
         0.000           0.000           0.000  
  11169749.671 6 -46426312.571 6        44.549 6       505.561 6         0.000  
         0.000           0.000           0.000  
  16146344.459 4  -7276741.772 4        37.897 4      -276.214 4         0.000  
         0.000           0.000           0.000  
  13595507.833 5 -36232602.779 5        41.565 5     -2007.381 5         0.000  
         0.000           0.000           0.000  
  11286253.637 6 -39486002.858 6        45.574 6      2510.071 6         0.000  
         0.000           0.000           0.000  
  12089330.700 7 -28025840.781 7        48.351 7      -570.025 7         0.000  
         0.000           0.000           0.000  
 13 11 12  0 41 44.1047021  0  9G11G12G14G15G18G19G21G22G24
  16076989.616 3  -1318650.468 3        36.117 3      3543.070 3         0.000  
         0.000           0.000           0.000  
  14600512.384 5  -7121735.653 5        42.997 5      3982.845 5         0.000  
         0.000           0.000           0.000  
  12521219.703 7 -26958805.760 7        46.229 7      3118.681 7         0.000  
         0.000           0.000           0.000  
  14703224.518 6 -33317432.351 6        43.811 6     -1756.448 6         0.000  
         0.000           0.000           0.000  
  11169653.053 6 -46426818.621 6        44.697 6       505.554 6         0.000  
         0.000           0.000           0.000  
  16146395.683 4  -7276465.753 4        38.664 4      -275.824 4         0.000  
         0.000           0.000           0.000  
  13595889.979 5 -36230593.352 5        41.639 5     -2007.319 5         0.000  
         0.000           0.000           0.000  
  11285775.385 6 -39488515.574 6        45.279 6      2510.113 6         0.000  
         0.000           0.000           0.000  
  12089439.511 7 -28025270.054 7        48.370 7      -570.289 7         0.000  
         0.000           0.000           0.000  
 13 11 12  0 41 45.1036995  0  9G11G12G14G15G18G19G21G22G24
  16076316.055 3  -1322190.510 3        36.525 3      3543.531 3         0.000  
         0.000           0.000           0.000  
  14599755.061 6  -7125714.579 6        43.050 6      3982.657 6         0.000  
         0.000           0.000           0.000  
  12520626.854 7 -26961921.359 7        46.132 7      3118.656 7         0.000  
         0.000           0.000           0.000  
  14703558.502 6 -33315677.493 6        43.790 6     -1756.363 6         0.000  
         0.000           0.000           0.000  
  11169556.948 6 -46427323.439 6        44.949 6       505.248 6         0.000  
         0.000           0.000           0.000  
  16146447.061 4  -7276190.045 4        38.639 4      -276.016 4         0.000  
         0.000           0.000           0.000  
  13596271.561 5 -36228587.893 5        41.161 5     -2007.625 5         0.000  
         0.000           0.000           0.000  
  11285298.150 6 -39491023.083 6        45.345 6      2509.969 6         0.000  
         0.000           0.000           0.000  
  12089548.014 7 -28024700.126 7        48.302 7      -570.870 7         0.000  
         0.000           0.000           0.000  
 13 11 12  0 41 46.1046970  0  9G11G12G14G15G18G19G21G22G24
  16075641.314 3  -1325737.228 3        36.619 3      3542.947 3         0.000  
         0.000           0.000           0.000  
  14598996.164 5  -7129701.277 5        42.958 5      3982.690 5         0.000  
         0.000           0.000           0.000  
  12520032.822 7 -26965042.989 7        46.249 7      3118.310 7         0.000  
         0.000           0.000           0.000  
  14703893.181 6 -33313919.136 6        43.751 6     -1756.819 6         0.000  
         0.000           0.000           0.000  
  11169460.721 6 -46427828.854 6        44.949 6       504.706 6         0.000  
         0.000           0.000           0.000  
  16146498.545 4  -7275913.396 4        38.651 4      -276.911 4         0.000  
         0.000           0.000           0.000  
  13596653.900 5 -36226578.207 5        41.315 5     -2008.243 5         0.000  
         0.000           0.000           0.000  
  11284820.146 6 -39493535.264 6        45.564 6      2509.481 6         0.000  
         0.000           0.000           0.000  
  12089656.827 7 -28024128.555 7        48.258 7      -571.384 7         0.000  
         0.000           0.000           0.000  
 13 11 12  0 41 47.1056945  0  9G11G12G14G15G18G19G21G22G24
  16074966.247 3  -1329283.406 3        35.964 3      3542.343 3         0.000  
         0.000           0.000           0.000  
  14598237.364 5  -7133687.636 5        42.855 5      3982.101 5         0.000  
         0.000           0.000           0.000  
  12519438.861 7 -26968164.294 7        46.438 7      3117.957 7         0.000  
         0.000           0.000           0.000  
  14704227.807 6 -33312160.681 6        43.698 6     -1756.833 6         0.000  
         0.000           0.000           0.000  
  11169364.782 6 -46428333.753 6        44.891 6       504.068 6         0.000  
         0.000           0.000           0.000  
  16146550.285 4  -7275636.242 4        38.659 4      -277.238 4         0.000  
         0.000           0.000           0.000  
  13597036.309 5 -36224568.198 5        41.083 5     -2008.583 5         0.000  
         0.000           0.000           0.000  
  11284342.136 6 -39496046.993 6        45.317 6      2509.062 6         0.000  
         0.000           0.000           0.000  
  12089765.701 7 -28023556.374 7        48.373 7      -571.872 7         0.000  
         0.000           0.000           0.000  
 13 11 12  0 41 48.1046920  0  9G11G12G14G15G18G19G21G22G24
  16074292.408 3  -1332822.051 3        36.150 3      3541.942 3         0.000  
         0.000           0.000           0.000  
  14597480.229 5  -7137665.764 5        42.603 5      3982.120 5         0.000  
         0.000           0.000           0.000  
  12518846.134 7 -26971279.066 7        46.362 7      3117.819 7         0.000  
         0.000           0.000           0.000  
  14704561.824 6 -33310405.683 6        43.592 6     -1756.937 6         0.000  
         0.000           0.000           0.000  
  11169269.157 6 -46428837.166 6        44.985 6       503.648 6         0.000  
         0.000           0.000           0.000  
  16146602.357 4  -7275359.182 4        38.500 4      -277.637 4         0.000  
         0.000           0.000           0.000  
  13597417.960 5 -36222561.930 5        41.208 5     -2008.378 5         0.000  
         0.000           0.000           0.000  
  11283865.147 6 -39498553.292 6        45.530 6      2508.626 6         0.000  
         0.000           0.000           0.000  
  12089874.379 7 -28022984.768 7        48.072 7      -572.522 7         0.000  
         0.000           0.000           0.000  
 13 11 12  0 41 49.1046894  0  9G11G12G14G15G18G19G21G22G24
  16073618.078 3  -1336363.767 3        35.891 3      3541.648 3         0.000  
         0.000           0.000           0.000  
  14596722.119 5  -7141647.589 5        42.750 5      3981.470 5         0.000  
         0.000           0.000           0.000  
  12518252.895 7 -26974396.694 7        46.294 7      3117.596 7         0.000  
         0.000           0.000           0.000  
  14704896.190 6 -33308648.893 6        43.600 6     -1756.615 6         0.000  
         0.000           0.000           0.000  
  11169173.517 6 -46429340.640 6        44.695 6       503.307 6         0.000  
         0.000           0.000           0.000  
  16146654.629 4  -7275081.390 4        38.341 4      -278.114 4         0.000  
         0.000           0.000           0.000  
  13597800.041 5 -36220553.372 5        41.137 5     -2008.533 5         0.000  
         0.000           0.000           0.000  
  11283387.761 6 -39501061.700 6        45.360 6      2508.312 6         0.000  
         0.000           0.000           0.000  
  12089983.349 7 -28022412.042 7        48.378 7      -573.055 7         0.000  
         0.000           0.000           0.000  
 13 11 12  0 41 50.1046869  0  9G11G12G14G15G18G19G21G22G24
  16072944.072 3  -1339905.006 3        36.204 3      3540.955 3         0.000  
         0.000           0.000           0.000  
  14595964.078 5  -7145629.132 5        42.479 5      3981.320 5         0.000  
         0.000           0.000           0.000  
  12517659.770 7 -26977514.034 7        46.375 7      3117.191 7         0.000  
         0.000           0.000           0.000  
  14705230.617 6 -33306892.030 6        43.859 6     -1756.986 6         0.000  
         0.000           0.000           0.000  
  11169077.994 6 -46429843.626 6        44.808 6       502.663 6         0.000  
         0.000           0.000           0.000  
  16146706.736 4  -7274803.120 4        38.415 4      -278.441 4         0.000  
         0.000           0.000           0.000  
  13598182.193 5 -36218544.550 5        41.128 5     -2008.940 5         0.000  
         0.000           0.000           0.000  
  11282910.562 6 -39503569.695 6        45.610 6      2507.546 6         0.000  
         0.000           0.000           0.000  
  12090092.489 7 -28021838.774 7        48.452 7      -573.659 7         0.000  
         0.000           0.000           0.000  
 13 11 12  0 41 51.1046844  0  9G11G12G14G15G18G19G21G22G24
  16072270.140 3  -1343445.669 3        35.585 3      3540.710 3         0.000  
         0.000           0.000           0.000  
  14595205.880 5  -7149610.304 5        42.623 5      3981.099 5         0.000  
         0.000           0.000           0.000  
  12517066.671 7 -26980630.999 7        46.437 7      3116.735 7         0.000  
         0.000           0.000           0.000  
  14705564.854 6 -33305135.025 6        43.346 6     -1757.109 6         0.000  
         0.000           0.000           0.000  
  11168982.526 6 -46430346.054 6        44.662 6       501.793 6         0.000  
         0.000           0.000           0.000  
  16146759.243 4  -7274524.312 4        38.546 4      -279.453 4         0.000  
         0.000           0.000           0.000  
  13598564.380 5 -36216535.361 5        41.200 5     -2009.409 5         0.000  
         0.000           0.000           0.000  
  11282433.351 6 -39506077.188 6        45.417 6      2507.380 6         0.000  
         0.000           0.000           0.000  
  12090201.865 7 -28021264.836 7        48.369 7      -574.357 7         0.000  
         0.000           0.000           0.000  
 13 11 12  0 41 52.1046818  0  9G11G12G14G15G18G19G21G22G24
  16071596.320 4  -1346985.745 4        37.219 4      3539.864 4         0.000  
         0.000           0.000           0.000  
  14594447.940 5  -7153591.100 5        42.990 5      3980.975 5         0.000  
         0.000           0.000           0.000  
  12516473.722 7 -26983747.584 7        46.242 7      3116.372 7         0.000  
         0.000           0.000           0.000  
  14705899.092 6 -33303377.871 6        43.511 6     -1757.005 6         0.000  
         0.000           0.000           0.000  
  11168887.084 6 -46430847.904 6        45.087 6       501.576 6         0.000  
         0.000           0.000           0.000  
  16146811.646 4  -7274244.947 4        37.090 4      -279.855 4         0.000  
         0.000           0.000           0.000  
  13598946.700 5 -36214525.793 5        41.528 5     -2009.545 5         0.000  
         0.000           0.000           0.000  
  11281956.296 6 -39508584.175 6        45.667 6      2506.577 6         0.000  
         0.000           0.000           0.000  
  12090311.275 7 -28020690.247 7        48.189 7      -574.970 7         0.000  
         0.000           0.000           0.000  
 13 11 12  0 41 53.1046793  0  9G11G12G14G15G18G19G21G22G24
  16070922.219 4  -1350525.291 4        37.272 4      3540.029 4         0.000  
         0.000           0.000           0.000  
  14593690.359 6  -7157571.533 6        43.175 6      3980.291 6         0.000  
         0.000           0.000           0.000  
  12515880.636 7 -26986863.821 7        46.215 7      3116.100 7         0.000  
         0.000           0.000           0.000  
  14706233.294 6 -33301620.591 6        43.204 6     -1757.348 6         0.000  
         0.000           0.000           0.000  
  11168791.735 6 -46431349.234 6        45.200 6       501.153 6         0.000  
         0.000           0.000           0.000  
  16146863.853 4  -7273965.059 4        37.086 4      -279.872 4         0.000  
         0.000           0.000           0.000  
  13599329.117 5 -36212515.890 5        41.338 5     -2010.321 5         0.000  
         0.000           0.000           0.000  
  11281479.304 6 -39511090.685 6        45.384 6      2506.113 6         0.000  
         0.000           0.000           0.000  
  12090420.719 7 -28020115.022 7        48.176 7      -575.539 7         0.000  
         0.000           0.000           0.000  
 13 11 12  0 41 54.1036768  0  9G11G12G14G15G18G19G21G22G24
  16070249.128 3  -1354060.879 3        36.373 3      3539.217 3         0.000  
         0.000           0.000           0.000  
  14592933.753 6  -7161547.763 6        43.744 6      3980.389 6         0.000  
         0.000           0.000           0.000  
  12515288.270 7 -26989976.708 7        46.250 7      3115.965 7         0.000  
         0.000           0.000           0.000  
  14706567.193 6 -33299865.065 6        43.586 6     -1757.277 6         0.000  
         0.000           0.000           0.000  
  11168696.604 6 -46431849.627 6        45.251 6       500.910 6         0.000  
         0.000           0.000           0.000  
  16146915.979 4  -7273685.036 4        37.430 4      -280.780 4         0.000  
         0.000           0.000           0.000  
  13599711.106 5 -36210507.753 5        41.626 5     -2010.194 5         0.000  
         0.000           0.000           0.000  
  11281003.028 6 -39513594.318 6        45.619 6      2506.200 6         0.000  
         0.000           0.000           0.000  
  12090530.007 7 -28019539.852 7        48.033 7      -576.074 7         0.000  
         0.000           0.000           0.000  
 13 11 12  0 41 55.1046743  0  9G11G12G14G15G18G19G21G22G24
  16069574.335 3  -1357603.119 3        36.178 3      3537.846 3         0.000  
         0.000           0.000           0.000  
  14592175.822 6  -7165531.723 6        43.393 6      3979.906 6         0.000  
         0.000           0.000           0.000  
  12514694.729 7 -26993095.608 7        46.016 7      3115.730 7         0.000  
         0.000           0.000           0.000  
  14706901.766 6 -33298106.028 6        43.691 6     -1757.291 6         0.000  
         0.000           0.000           0.000  
  11168601.347 6 -46432350.609 6        44.907 6       500.353 6         0.000  
         0.000           0.000           0.000  
  16146968.443 4  -7273404.056 4        37.430 4      -280.779 4         0.000  
         0.000           0.000           0.000  
  13600093.886 5 -36208495.390 5        41.211 5     -2010.578 5         0.000  
         0.000           0.000           0.000  
  11280525.839 6 -39516102.620 6        45.522 6      2505.548 6         0.000  
         0.000           0.000           0.000  
  12090639.555 7 -28018963.040 7        48.005 7      -576.327 7         0.000  
         0.000           0.000           0.000  
 13 11 12  0 41 56.1056717  0  9G11G12G14G15G18G19G21G22G24
  16068899.808 3  -1361144.947 3        36.385 3      3538.111 3         0.000  
         0.000           0.000           0.000  
  14591418.118 6  -7169515.475 6        43.503 6      3979.748 6         0.000  
         0.000           0.000           0.000  
  12514101.269 7 -26996214.275 7        46.166 7      3115.434 7         0.000  
         0.000           0.000           0.000  
  14707236.616 6 -33296346.997 6        43.556 6     -1756.949 6         0.000  
         0.000           0.000           0.000  
  11168505.953 6 -46432851.170 6        45.055 6       500.192 6         0.000  
         0.000           0.000           0.000  
  16147021.357 4  -7273122.688 4        38.025 4      -281.559 4         0.000  
         0.000           0.000           0.000  
  13600476.695 5 -36206482.806 5        41.262 5     -2010.859 5         0.000  
         0.000           0.000           0.000  
  11280048.663 6 -39518610.569 6        45.513 6      2505.358 6         0.000  
         0.000           0.000           0.000  
  12090749.398 7 -28018385.726 7        48.070 7      -576.855 7         0.000  
         0.000           0.000           0.000  
 13 11 12  0 41 57.1046692  0  9G11G12G14G15G18G19G21G22G24
  16068227.150 3  -1364679.359 3        36.865 3      3538.194 3         0.000  
         0.000           0.000           0.000  
  14590661.958 6  -7173491.092 6        43.933 6      3979.665 6         0.000  
         0.000           0.000           0.000  
  12513508.973 7 -26999326.551 7        46.225 7      3115.074 7         0.000  
         0.000           0.000           0.000  
  14707570.781 6 -33294591.542 6        43.951 6     -1757.328 6         0.000  
         0.000           0.000           0.000  
  11168410.647 6 -46433350.394 6        44.787 6       499.714 6         0.000  
         0.000           0.000           0.000  
  16147074.895 4  -7272841.533 4        38.266 4      -281.998 4         0.000  
         0.000           0.000           0.000  
  13600858.858 5 -36204474.092 5        41.520 5     -2011.177 5         0.000  
         0.000           0.000           0.000  
  11279572.454 6 -39521113.215 6        45.347 6      2505.096 6         0.000  
         0.000           0.000           0.000  
  12090859.123 7 -28017809.128 7        48.073 7      -577.400 7         0.000  
         0.000           0.000           0.000  
 13 11 12  0 41 58.1056667  0  9G11G12G14G15G18G19G21G22G24
  16067553.500 3  -1368220.551 3        36.669 3      3536.855 3         0.000  
         0.000           0.000           0.000  
  14589904.279 6  -7177474.595 6        43.722 6      3979.426 6         0.000  
         0.000           0.000           0.000  
  12512915.451 7 -27002444.985 7        46.201 7      3115.241 7         0.000  
         0.000           0.000           0.000  
  14707905.589 6 -33292832.725 6        43.895 6     -1756.761 6         0.000  
         0.000           0.000           0.000  
  11168315.427 6 -46433850.333 6        44.518 6       499.125 6         0.000  
         0.000           0.000           0.000  
  16147128.715 4  -7272559.568 4        38.974 4      -281.743 4         0.000  
         0.000           0.000           0.000  
  13601241.978 5 -36202461.285 5        41.293 5     -2011.007 5         0.000  
         0.000           0.000           0.000  
  11279095.374 6 -39523620.674 6        45.560 6      2504.747 6         0.000  
         0.000           0.000           0.000  
  12090969.148 7 -28017231.020 7        48.318 7      -577.749 7         0.000  
         0.000           0.000           0.000  
 13 11 12  0 41 59.1046642  0  9G11G12G14G15G18G19G21G22G24
  16066881.367 4  -1371754.273 4        37.547 4      3536.982 4         0.000  
         0.000           0.000           0.000  
  14589148.035 6  -7181449.928 6        43.951 6      3979.247 6         0.000  
         0.000           0.000           0.000  
  12512323.282 7 -27005556.971 7        46.107 7      3115.148 7         0.000  
         0.000           0.000           0.000  
  14708239.632 6 -33291077.433 6        43.560 6     -1757.208 6         0.000  
         0.000           0.000           0.000  
  11168220.349 6 -46434348.878 6        45.116 6       498.846 6         0.000  
         0.000           0.000           0.000  
  16147182.656 4  -7272277.767 4        37.924 4      -282.016 4         0.000  
         0.000           0.000           0.000  
  13601624.335 5 -36200452.286 5        41.910 5     -2010.982 5         0.000  
         0.000           0.000           0.000  
  11278619.294 6 -39526122.772 6        45.728 6      2504.575 6         0.000  
         0.000           0.000           0.000  
  12091079.142 7 -28016653.573 7        48.328 7      -578.390 7         0.000  
         0.000           0.000           0.000  
 13 11 12  0 42  0.1046616  0  9G11G12G14G15G18G19G21G22G24
  16066208.549 4  -1375291.016 4        37.045 4      3536.571 4         0.000  
         0.000           0.000           0.000  
  14588390.868 6  -7185428.945 6        43.700 6      3978.595 6         0.000  
         0.000           0.000           0.000  
  12511730.597 7 -27008671.783 7        46.161 7      3114.610 7         0.000  
         0.000           0.000           0.000  
  14708573.991 6 -33289320.325 6        43.754 6     -1756.977 6         0.000  
         0.000           0.000           0.000  
  11168125.346 6 -46434847.449 6        44.937 6       498.306 6         0.000  
         0.000           0.000           0.000  
  16147236.957 4  -7271995.209 4        38.517 4      -282.950 4         0.000  
         0.000           0.000           0.000  
  13602007.308 5 -36198440.988 5        41.464 5     -2011.360 5         0.000  
         0.000           0.000           0.000  
  11278142.884 6 -39528626.958 6        45.464 6      2503.893 6         0.000  
         0.000           0.000           0.000  
  12091189.396 7 -28016074.975 7        48.026 7      -578.996 7         0.000  
         0.000           0.000           0.000  
 13 11 12  0 42  1.1046591  0  9G11G12G14G15G18G19G21G22G24
  16065535.545 4  -1378827.193 4        37.047 4      3535.993 4         0.000  
         0.000           0.000           0.000  
  14587633.642 6  -7189407.564 6        43.415 6      3978.651 6         0.000  
         0.000           0.000           0.000  
  12511137.963 7 -27011786.195 7        46.223 7      3114.270 7         0.000  
         0.000           0.000           0.000  
  14708908.335 6 -33287563.055 6        43.460 6     -1757.022 6         0.000  
         0.000           0.000           0.000  
  11168030.469 6 -46435345.427 6        44.660 6       497.577 6         0.000  
         0.000           0.000           0.000  
  16147291.213 4  -7271712.093 4        38.149 4      -283.614 4         0.000  
         0.000           0.000           0.000  
  13602390.414 5 -36196429.294 5        41.473 5     -2011.830 5         0.000  
         0.000           0.000           0.000  
  11277666.493 6 -39531130.617 6        45.458 6      2503.325 6         0.000  
         0.000           0.000           0.000  
  12091299.599 7 -28015495.689 7        48.131 7      -579.649 7         0.000  
         0.000           0.000           0.000  
 13 11 12  0 42  2.1046566  0  9G11G12G14G15G18G19G21G22G24
  16064862.536 3  -1382362.757 3        36.488 3      3535.439 3         0.000  
         0.000           0.000           0.000  
  14586876.437 6  -7193385.779 6        43.568 6      3978.234 6         0.000  
         0.000           0.000           0.000  
  12510545.323 7 -27014900.212 7        46.039 7      3113.983 7         0.000  
         0.000           0.000           0.000  
  14709242.735 6 -33285805.600 6        43.554 6     -1757.358 6         0.000  
         0.000           0.000           0.000  
  11167935.763 6 -46435842.817 6        44.977 6       497.211 6         0.000  
         0.000           0.000           0.000  
  16147345.416 4  -7271428.392 4        38.264 4      -283.924 4         0.000  
         0.000           0.000           0.000  
  13602773.540 5 -36194417.204 5        41.895 5     -2011.959 5         0.000  
         0.000           0.000           0.000  
  11277190.206 6 -39533633.745 6        45.502 6      2503.111 6         0.000  
         0.000           0.000           0.000  
  12091409.776 7 -28014915.733 7        48.041 7      -580.253 7         0.000  
         0.000           0.000           0.000  
 13 11 12  0 42  3.1046541  0  9G11G12G14G15G18G19G21G22G24
  16064189.481 3  -1385897.934 3        36.727 3      3534.953 3         0.000  
         0.000           0.000           0.000  
  14586119.275 6  -7197363.789 6        43.311 6      3977.767 6         0.000  
         0.000           0.000           0.000  
  12509952.693 7 -27018014.024 7        46.040 7      3113.624 7         0.000  
         0.000           0.000           0.000  
  14709577.051 6 -33284048.171 6        43.694 6     -1757.390 6         0.000  
         0.000           0.000           0.000  
  11167841.105 6 -46436339.812 6        44.904 6       497.243 6         0.000  
         0.000           0.000           0.000  
  16147399.783 4  -7271144.301 4        38.517 4      -283.870 4         0.000  
         0.000           0.000           0.000  
  13603156.775 5 -36192404.916 5        41.780 5     -2012.302 5         0.000  
         0.000           0.000           0.000  
  11276713.980 6 -39536136.547 6        45.590 6      2502.733 6         0.000  
         0.000           0.000           0.000  
  12091520.050 7 -28014335.299 7        47.858 7      -580.804 7         0.000  
         0.000           0.000           0.000  
 13 11 12  0 42  4.1046515  0  9G11G12G14G15G18G19G21G22G24
  16063516.163 3  -1389432.739 3        36.779 3      3534.231 3         0.000  
         0.000           0.000           0.000  
  14585362.163 6  -7201341.632 6        43.737 6      3977.623 6         0.000  
         0.000           0.000           0.000  
  12509360.124 7 -27021127.665 7        46.139 7      3113.392 7         0.000  
         0.000           0.000           0.000  
  14709911.525 6 -33282290.799 6        43.752 6     -1757.313 6         0.000  
         0.000           0.000           0.000  
  11167746.595 6 -46436836.437 6        44.682 6       496.292 6         0.000  
         0.000           0.000           0.000  
  16147454.028 4  -7270859.879 4        38.385 4      -284.319 4         0.000  
         0.000           0.000           0.000  
  13603540.085 5 -36190392.471 5        41.853 5     -2012.628 5         0.000  
         0.000           0.000           0.000  
  11276237.771 6 -39538639.048 6        45.649 6      2502.527 6         0.000  
         0.000           0.000           0.000  
  12091630.466 7 -28013754.425 7        47.955 7      -581.170 7         0.000  
         0.000           0.000           0.000  
 13 11 12  0 42  5.1056490  0  9G11G12G14G15G18G19G21G22G24
  16062842.311 3  -1392970.684 3        36.418 3      3534.998 3         0.000  
         0.000           0.000           0.000  
  14584604.336 6  -7205323.247 6        43.168 6      3977.476 6         0.000  
         0.000           0.000           0.000  
  12508767.125 7 -27024244.208 7        46.402 7      3113.441 7         0.000  
         0.000           0.000           0.000  
  14710246.356 6 -33280531.695 6        43.817 6     -1757.507 6         0.000  
         0.000           0.000           0.000  
  11167652.117 6 -46437333.169 6        44.869 6       496.065 6         0.000  
         0.000           0.000           0.000  
  16147508.426 4  -7270574.789 4        37.993 4      -285.205 4         0.000  
         0.000           0.000           0.000  
  13603923.931 5 -36188377.801 5        41.981 5     -2013.012 5         0.000  
         0.000           0.000           0.000  
  11275761.000 6 -39541143.709 6        45.313 6      2501.952 6         0.000  
         0.000           0.000           0.000  
  12091741.132 7 -28013172.490 7        48.086 7      -581.684 7         0.000  
         0.000           0.000           0.000  
 13 11 12  0 42  6.1046465  0  9G11G12G14G15G18G19G21G22G24
  16062169.813 3  -1396501.107 3        35.931 3      3533.581 3         0.000  
         0.000           0.000           0.000  
  14583848.277 6  -7209296.618 6        43.334 6      3977.333 6         0.000  
         0.000           0.000           0.000  
  12508175.415 7 -27027354.249 7        46.161 7      3113.139 7         0.000  
         0.000           0.000           0.000  
  14710580.591 6 -33278776.052 6        43.975 6     -1757.577 6         0.000  
         0.000           0.000           0.000  
  11167557.755 6 -46437828.427 6        44.798 6       495.517 6         0.000  
         0.000           0.000           0.000  
  16147562.485 4  -7270289.811 4        37.783 4      -285.457 4         0.000  
         0.000           0.000           0.000  
  13604306.950 5 -36186366.890 5        41.737 5     -2013.190 5         0.000  
         0.000           0.000           0.000  
  11275285.401 6 -39543642.960 6        45.349 6      2501.627 6         0.000  
         0.000           0.000           0.000  
  12091851.794 7 -28012591.153 7        48.269 7      -582.276 7         0.000  
         0.000           0.000           0.000  
 13 11 12  0 42  7.1056440  0  9G11G12G14G15G18G19G21G22G24
  16061495.950 3  -1400038.112 3        35.333 3      3533.393 3         0.000  
         0.000           0.000           0.000  
  14583090.691 6  -7213277.696 6        43.504 6      3976.882 6         0.000  
         0.000           0.000           0.000  
  12507582.458 7 -27030470.263 7        46.252 7      3112.604 7         0.000  
         0.000           0.000           0.000  
  14710915.536 6 -33277016.863 6        43.833 6     -1757.543 6         0.000  
         0.000           0.000           0.000  
  11167463.289 6 -46438324.251 6        44.764 6       494.868 6         0.000  
         0.000           0.000           0.000  
  16147616.864 4  -7270003.834 4        38.081 4      -285.774 4         0.000  
         0.000           0.000           0.000  
  13604691.069 5 -36184351.706 5        41.813 5     -2012.994 5         0.000  
         0.000           0.000           0.000  
  11274809.010 6 -39546146.837 6        45.407 6      2501.011 6         0.000  
         0.000           0.000           0.000  
  12091962.860 7 -28012008.125 7        48.230 7      -582.846 7         0.000  
         0.000           0.000           0.000  
 13 11 12  0 42  8.1046414  0  9G11G12G14G15G18G19G21G22G24
  16060823.416 3  -1403567.600 3        35.878 3      3531.639 3         0.000  
         0.000           0.000           0.000  
  14582334.570 6  -7217250.540 6        43.587 6      3976.569 6         0.000  
         0.000           0.000           0.000  
  12506990.718 7 -27033579.766 7        46.051 7      3112.529 7         0.000  
         0.000           0.000           0.000  
  14711249.518 6 -33275261.141 6        43.385 6     -1757.811 6         0.000  
         0.000           0.000           0.000  
  11167369.034 6 -46438818.607 6        44.786 6       494.633 6         0.000  
         0.000           0.000           0.000  
  16147671.509 4  -7269717.961 4        37.710 4      -286.626 4         0.000  
         0.000           0.000           0.000  
  13605074.035 5 -36182340.275 5        41.715 5     -2013.219 5         0.000  
         0.000           0.000           0.000  
  11274333.560 6 -39548645.298 6        45.132 6      2500.759 6         0.000  
         0.000           0.000           0.000  
  12092073.742 7 -28011425.698 7        48.327 7      -583.382 7         0.000  
         0.000           0.000           0.000  
 13 11 12  0 42  9.1056389  0  9G11G12G14G15G18G19G21G22G24
  16060150.110 3  -1407103.640 3        35.982 3      3531.872 3         0.000  
         0.000           0.000           0.000  
  14581576.922 6  -7221231.016 6        43.524 6      3976.303 6         0.000  
         0.000           0.000           0.000  
  12506397.821 7 -27036695.191 7        46.177 7      3112.138 7         0.000  
         0.000           0.000           0.000  
  14711584.435 6 -33273501.825 6        43.845 6     -1757.764 6         0.000  
         0.000           0.000           0.000  
  11167274.699 6 -46439313.462 6        44.893 6       494.057 6         0.000  
         0.000           0.000           0.000  
  16147726.615 4  -7269431.029 4        38.012 4      -286.684 4         0.000  
         0.000           0.000           0.000  
  13605457.974 5 -36180324.515 5        41.751 5     -2014.117 5         0.000  
         0.000           0.000           0.000  
  11273857.127 6 -39551148.330 6        45.371 6      2500.361 6         0.000  
         0.000           0.000           0.000  
  12092184.901 7 -28010841.513 7        48.151 7      -583.966 7         0.000  
         0.000           0.000           0.000  
 13 11 12  0 42 10.1046364  0  9G11G12G14G15G18G19G21G22G24
  16059478.498 3  -1410632.072 3        36.049 3      3531.748 3         0.000  
         0.000           0.000           0.000  
  14580820.906 6  -7225203.208 6        43.783 6      3976.087 6         0.000  
         0.000           0.000           0.000  
  12505806.143 7 -27039804.055 7        46.180 7      3111.808 7         0.000  
         0.000           0.000           0.000  
  14711918.735 6 -33271745.929 6        43.893 6     -1757.669 6         0.000  
         0.000           0.000           0.000  
  11167180.733 6 -46439806.803 6        45.075 6       493.661 6         0.000  
         0.000           0.000           0.000  
  16147781.843 4  -7269144.188 4        38.316 4      -287.174 4         0.000  
         0.000           0.000           0.000  
  13605841.077 5 -36178312.451 5        41.838 5     -2013.953 5         0.000  
         0.000           0.000           0.000  
  11273381.744 6 -39553645.889 6        45.335 6      2500.012 6         0.000  
         0.000           0.000           0.000  
  12092295.821 7 -28010257.891 7        47.895 7      -584.503 7         0.000  
         0.000           0.000           0.000  
 13 11 12  0 42 11.1046339  0  9G11G12G14G15G18G19G21G22G24
  16058806.515 3  -1414163.565 3        36.837 3      3530.464 3         0.000  
         0.000           0.000           0.000  
  14580064.367 6  -7229179.111 6        43.916 6      3975.565 6         0.000  
         0.000           0.000           0.000  
  12505213.976 7 -27042915.766 7        46.110 7      3111.495 7         0.000  
         0.000           0.000           0.000  
  14712253.368 6 -33269988.233 6        43.881 6     -1757.866 6         0.000  
         0.000           0.000           0.000  
  11167086.920 6 -46440300.174 6        44.991 6       492.782 6         0.000  
         0.000           0.000           0.000  
  16147837.326 4  -7268856.599 4        38.818 4      -287.936 4         0.000  
         0.000           0.000           0.000  
  13606224.654 5 -36176298.112 5        42.425 5     -2014.483 5         0.000  
         0.000           0.000           0.000  
  11272905.975 6 -39556145.564 6        45.187 6      2499.363 6         0.000  
         0.000           0.000           0.000  
  12092406.948 7 -28009673.143 7        47.836 7      -585.069 7         0.000  
         0.000           0.000           0.000  
 13 11 12  0 42 12.1046313  0  9G11G12G14G15G18G19G21G22G24
  16058134.925 3  -1417694.565 3        36.720 3      3530.547 3         0.000  
         0.000           0.000           0.000  
  14579308.138 6  -7233154.709 6        43.775 6      3975.761 6         0.000  
         0.000           0.000           0.000  
  12504621.808 7 -27046027.178 7        46.017 7      3111.353 7         0.000  
         0.000           0.000           0.000  
  14712588.109 6 -33268230.466 6        43.786 6     -1758.111 6         0.000  
         0.000           0.000           0.000  
  11166993.336 6 -46440793.056 6        45.082 6       492.625 6         0.000  
         0.000           0.000           0.000  
  16147892.826 4  -7268568.535 4        38.937 4      -288.252 4         0.000  
         0.000           0.000           0.000  
  13606608.481 5 -36174283.496 5        42.279 5     -2014.777 5         0.000  
         0.000           0.000           0.000  
  11272430.362 6 -39558644.800 6        45.178 6      2499.169 6         0.000  
         0.000           0.000           0.000  
  12092518.201 7 -28009087.819 7        48.030 7      -585.652 7         0.000  
         0.000           0.000           0.000  
 13 11 12  0 42 13.1046288  0  9G11G12G14G15G18G19G21G22G24
  16057463.577 4  -1421225.116 4        37.541 4      3530.302 4         0.000  
         0.000           0.000           0.000  
  14578551.883 6  -7237130.064 6        43.740 6      3975.173 6         0.000  
         0.000           0.000           0.000  
  12504029.712 6 -27049138.331 6        45.999 6      3111.144 6         0.000  
         0.000           0.000           0.000  
  14712922.649 6 -33266472.675 6        43.892 6     -1757.883 6         0.000  
         0.000           0.000           0.000  
  11166899.747 6 -46441285.505 6        45.067 6       492.169 6         0.000  
         0.000           0.000           0.000  
  16147948.421 4  -7268280.036 4        38.487 4      -288.907 4         0.000  
         0.000           0.000           0.000  
  13606992.204 5 -36172268.626 5        41.964 5     -2015.158 5         0.000  
         0.000           0.000           0.000  
  11271954.742 6 -39561143.654 6        45.251 6      2498.766 6         0.000  
         0.000           0.000           0.000  
  12092629.685 7 -28008501.971 7        47.952 7      -585.981 7         0.000  
         0.000           0.000           0.000  
 13 11 12  0 42 14.1056263  0  9G11G12G14G15G18G19G21G22G24
  16056791.969 4  -1424758.642 4        37.414 4      3530.358 4         0.000  
         0.000           0.000           0.000  
  14577794.800 6  -7241109.041 6        43.834 6      3974.900 6         0.000  
         0.000           0.000           0.000  
  12503437.151 7 -27052252.249 7        46.062 7      3110.629 7         0.000  
         0.000           0.000           0.000  
  14713257.586 6 -33264713.010 6        43.347 6     -1758.022 6         0.000  
         0.000           0.000           0.000  
  11166806.107 6 -46441777.891 6        45.073 6       491.371 6         0.000  
         0.000           0.000           0.000  
  16148003.889 4  -7267990.728 4        38.951 4      -289.347 4         0.000  
         0.000           0.000           0.000  
  13607376.520 5 -36170251.399 5        42.221 5     -2015.484 5         0.000  
         0.000           0.000           0.000  
  11271478.768 6 -39563644.531 6        45.156 6      2498.075 6         0.000  
         0.000           0.000           0.000  
  12092741.440 7 -28007914.911 7        48.420 7      -586.741 7         0.000  
         0.000           0.000           0.000  
 13 11 12  0 42 15.1046238  0  9G11G12G14G15G18G19G21G22G24
  16056121.448 3  -1428284.494 3        36.743 3      3529.477 3         0.000  
         0.000           0.000           0.000  
  14577039.276 6  -7245079.638 6        44.007 6      3974.281 6         0.000  
         0.000           0.000           0.000  
  12502845.840 7 -27055359.526 7        46.020 7      3110.261 7         0.000  
         0.000           0.000           0.000  
  14713591.764 6 -33262956.687 6        43.329 6     -1758.407 6         0.000  
         0.000           0.000           0.000  
  11166712.782 6 -46442268.685 6        45.079 6       490.849 6         0.000  
         0.000           0.000           0.000  
  16148059.190 4  -7267701.405 4        38.506 4      -289.901 4         0.000  
         0.000           0.000           0.000  
  13607760.067 5 -36168237.780 5        42.027 5     -2015.681 5         0.000  
         0.000           0.000           0.000  
  11271003.916 6 -39566139.858 6        45.231 6      2497.743 6         0.000  
         0.000           0.000           0.000  
  12092853.160 7 -28007328.332 7        48.369 7      -587.539 7         0.000  
         0.000           0.000           0.000  
 13 11 12  0 42 16.1056212  0  9G11G12G14G15G18G19G21G22G24
  16055449.453 4  -1431816.933 4        37.234 4      3529.021 4         0.000  
         0.000           0.000           0.000  
  14576282.111 6  -7249057.924 6        43.664 6      3974.383 6         0.000  
         0.000           0.000           0.000  
  12502253.417 7 -27058472.751 7        46.230 7      3110.066 7         0.000  
         0.000           0.000           0.000  
  14713926.545 6 -33261196.796 6        43.646 6     -1757.970 6         0.000  
         0.000           0.000           0.000  
  11166619.333 6 -46442760.008 6        44.898 6       490.545 6         0.000  
         0.000           0.000           0.000  
  16148114.606 4  -7267411.059 4        38.738 4      -290.121 4         0.000  
         0.000           0.000           0.000  
  13608144.348 5 -36166219.878 5        42.027 5     -2016.033 5         0.000  
         0.000           0.000           0.000  
  11270528.178 6 -39568639.781 6        45.260 6      2497.405 6         0.000  
         0.000           0.000           0.000  
  12092965.156 7 -28006740.024 7        48.071 7      -587.916 7         0.000  
         0.000           0.000           0.000  
 13 11 12  0 42 17.1046187  0  9G11G12G14G15G18G19G21G22G24
  16054778.536 3  -1435341.927 3        36.273 3      3528.677 3         0.000  
         0.000           0.000           0.000  
  14575526.615 6  -7253028.028 6        43.923 6      3973.978 6         0.000  
         0.000           0.000           0.000  
  12501662.149 6 -27061579.549 6        45.827 6      3109.772 6         0.000  
         0.000           0.000           0.000  
  14714260.643 6 -33259440.439 6        43.474 6     -1758.063 6         0.000  
         0.000           0.000           0.000  
  11166526.209 6 -46443249.947 6        44.951 6       490.025 6         0.000  
         0.000           0.000           0.000  
  16148170.346 4  -7267120.910 4        39.040 4      -290.472 4         0.000  
         0.000           0.000           0.000  
  13608527.909 5 -36164205.812 5        41.936 5     -2016.200 5         0.000  
         0.000           0.000           0.000  
  11270053.456 6 -39571134.371 6        45.137 6      2496.949 6         0.000  
         0.000           0.000           0.000  
  12093077.056 7 -28006152.412 7        48.220 7      -588.513 7         0.000  
         0.000           0.000           0.000  
 13 11 12  0 42 18.1056162  0  9G11G12G14G15G18G19G21G22G24
  16054106.196 3  -1438873.641 3        36.807 3      3527.893 3         0.000  
         0.000           0.000           0.000  
  14574769.422 6  -7257005.954 6        43.752 6      3973.917 6         0.000  
         0.000           0.000           0.000  
  12501069.657 6 -27064692.431 6        45.961 6      3109.830 6         0.000  
         0.000           0.000           0.000  
  14714595.360 6 -33257680.653 6        43.417 6     -1757.740 6         0.000  
         0.000           0.000           0.000  
  11166432.974 6 -46443740.547 6        45.129 6       489.989 6         0.000  
         0.000           0.000           0.000  
  16148226.271 4  -7266829.872 4        38.785 4      -291.113 4         0.000  
         0.000           0.000           0.000  
  13608912.052 5 -36162187.577 5        41.972 5     -2016.526 5         0.000  
         0.000           0.000           0.000  
  11269577.917 6 -39573633.701 6        45.563 6      2496.718 6         0.000  
         0.000           0.000           0.000  
  12093189.207 7 -28005563.212 7        48.213 7      -588.744 7         0.000  
         0.000           0.000           0.000  
 13 11 12  0 42 19.1046137  0  9G11G12G14G15G18G19G21G22G24
  16053435.860 3  -1442397.903 3        36.159 3      3527.688 3         0.000  
         0.000           0.000           0.000  
  14574013.884 6  -7260975.729 6        43.935 6      3973.624 6         0.000  
         0.000           0.000           0.000  
  12500478.540 6 -27067798.891 6        45.892 6      3109.321 6         0.000  
         0.000           0.000           0.000  
  14714929.390 6 -33255924.423 6        43.565 6     -1757.960 6         0.000  
         0.000           0.000           0.000  
  11166339.900 6 -46444229.775 6        44.977 6       489.479 6         0.000  
         0.000           0.000           0.000  
  16148282.050 4  -7266539.039 4        39.025 4      -291.966 4         0.000  
         0.000           0.000           0.000  
  13609295.660 5 -36160173.182 5        41.375 5     -2016.645 5         0.000  
         0.000           0.000           0.000  
  11269103.453 6 -39576127.696 6        45.191 6      2496.356 6         0.000  
         0.000           0.000           0.000  
  12093301.065 7 -28004974.697 7        47.891 7      -589.421 7         0.000  
         0.000           0.000           0.000  
 13 11 12  0 42 20.1056112  0  9G11G12G14G15G18G19G21G22G24
  16052763.764 3  -1445928.716 3        36.909 3      3527.020 3         0.000  
         0.000           0.000           0.000  
  14573256.838 6  -7264953.129 6        43.894 6      3973.396 6         0.000  
         0.000           0.000           0.000  
  12499886.252 7 -27070911.269 7        46.229 7      3109.121 7         0.000  
         0.000           0.000           0.000  
  14715263.919 6 -33254164.589 6        43.305 6     -1757.933 6         0.000  
         0.000           0.000           0.000  
  11166246.805 6 -46444719.477 6        45.044 6       489.046 6         0.000  
         0.000           0.000           0.000  
  16148337.612 4  -7266247.130 4        38.240 4      -291.656 4         0.000  
         0.000           0.000           0.000  
  13609680.046 5 -36158154.451 5        42.038 5     -2016.761 5         0.000  
         0.000           0.000           0.000  
  11268628.076 6 -39578626.251 6        45.601 6      2496.000 6         0.000  
         0.000           0.000           0.000  
  12093413.256 7 -28004384.416 7        47.972 7      -589.873 7         0.000  
         0.000           0.000           0.000  
 13 11 12  0 42 21.1046086  0  9G11G12G14G15G18G19G21G22G24
  16052093.059 3  -1449452.105 3        36.227 3      3526.583 3         0.000  
         0.000           0.000           0.000  
  14572501.471 6  -7268922.415 6        43.930 6      3973.270 6         0.000  
         0.000           0.000           0.000  
  12499295.111 7 -27074017.244 7        46.021 7      3108.902 7         0.000  
         0.000           0.000           0.000  
  14715597.887 6 -33252408.327 6        43.649 6     -1758.026 6         0.000  
         0.000           0.000           0.000  
  11166153.939 6 -46445207.847 6        45.157 6       488.617 6         0.000  
         0.000           0.000           0.000  
  16148393.256 4  -7265955.455 4        38.358 4      -292.383 4         0.000  
         0.000           0.000           0.000  
  13610063.471 5 -36156139.589 5        41.771 5     -2016.925 5         0.000  
         0.000           0.000           0.000  
  11268153.735 6 -39581119.501 6        45.296 6      2495.500 6         0.000  
         0.000           0.000           0.000  
  12093525.404 7 -28003794.870 7        48.108 7      -590.583 7         0.000  
         0.000           0.000           0.000  
 13 11 12  0 42 22.1056061  0  9G11G12G14G15G18G19G21G22G24
  16051420.978 3  -1452982.116 3        35.332 3      3526.658 3         0.000  
         0.000           0.000           0.000  
  14571744.650 6  -7272899.423 6        44.160 6      3972.993 6         0.000  
         0.000           0.000           0.000  
  12498702.982 7 -27077129.232 7        46.234 7      3108.969 7         0.000  
         0.000           0.000           0.000  
  14715932.741 6 -33250648.563 6        43.747 6     -1757.793 6         0.000  
         0.000           0.000           0.000  
  11166060.901 6 -46445696.776 6        44.810 6       488.399 6         0.000  
         0.000           0.000           0.000  
  16148448.827 4  -7265662.817 4        38.641 4      -292.565 4         0.000  
         0.000           0.000           0.000  
  13610447.766 5 -36154120.493 5        41.805 5     -2016.943 5         0.000  
         0.000           0.000           0.000  
  11267678.574 6 -39583617.399 6        45.345 6      2495.427 6         0.000  
         0.000           0.000           0.000  
  12093637.887 7 -28003203.663 7        48.178 7      -590.699 7         0.000  
         0.000           0.000           0.000  
 13 11 12  0 42 23.1056036  0  9G11G12G14G15G18G19G21G22G24
  16050749.136 3  -1456508.237 3        35.748 3      3525.939 3         0.000  
         0.000           0.000           0.000  
  14570988.569 6  -7276872.259 6        44.198 6      3972.812 6         0.000  
         0.000           0.000           0.000  
  12498111.502 7 -27080237.910 7        46.036 7      3108.579 7         0.000  
         0.000           0.000           0.000  
  14716267.344 6 -33248890.575 6        44.071 6     -1758.036 6         0.000  
         0.000           0.000           0.000  
  11165968.162 6 -46446184.833 6        44.789 6       487.762 6         0.000  
         0.000           0.000           0.000  
  16148504.464 4  -7265370.095 4        38.295 4      -293.027 4         0.000  
         0.000           0.000           0.000  
  13610831.594 5 -36152103.222 5        41.578 5     -2017.526 5         0.000  
         0.000           0.000           0.000  
  11267203.964 6 -39586112.478 6        45.637 6      2494.826 6         0.000  
         0.000           0.000           0.000  
  12093750.519 7 -28002612.565 7        48.262 7      -591.345 7         0.000  
         0.000           0.000           0.000  
 13 11 12  0 42 24.1046011  0  9G11G12G14G15G18G19G21G22G24
  16050077.935 3  -1460030.313 3        35.511 3      3525.085 3         0.000  
         0.000           0.000           0.000  
  14570233.389 6  -7280840.791 6        44.411 6      3972.421 6         0.000  
         0.000           0.000           0.000  
  12497520.540 7 -27083343.168 7        46.252 7      3108.186 7         0.000  
         0.000           0.000           0.000  
  14716601.488 6 -33247134.265 6        43.593 6     -1757.953 6         0.000  
         0.000           0.000           0.000  
  11165875.501 6 -46446671.900 6        44.791 6       487.357 6         0.000  
         0.000           0.000           0.000  
  16148560.245 4  -7265077.183 4        38.194 4      -293.417 4         0.000  
         0.000           0.000           0.000  
  13611214.989 5 -36150087.665 5        41.187 5     -2017.714 5         0.000  
         0.000           0.000           0.000  
  11266729.875 6 -39588604.625 6        45.433 6      2494.472 6         0.000  
         0.000           0.000           0.000  
  12093863.135 7 -28002021.477 7        48.235 7      -591.911 7         0.000  
         0.000           0.000           0.000  
 13 11 12  0 42 25.1055985  0  9G11G12G14G15G18G19G21G22G24
  16049405.968 3  -1463558.943 3        35.387 3      3523.912 3         0.000  
         0.000           0.000           0.000  
  14569476.732 6  -7284816.972 6        44.503 6      3972.143 6         0.000  
         0.000           0.000           0.000  
  12496928.502 7 -27086454.340 7        46.165 7      3107.956 7         0.000  
         0.000           0.000           0.000  
  14716936.449 6 -33245374.360 6        43.666 6     -1758.137 6         0.000  
         0.000           0.000           0.000  
  11165782.637 6 -46447159.453 6        44.783 6       486.827 6         0.000  
         0.000           0.000           0.000  
  16148616.466 4  -7264783.216 4        37.993 4      -294.084 4         0.000  
         0.000           0.000           0.000  
  13611599.179 5 -36148067.775 5        41.363 5     -2018.259 5         0.000  
         0.000           0.000           0.000  
  11266254.996 6 -39591101.305 6        45.796 6      2494.007 6         0.000  
         0.000           0.000           0.000  
  12093975.942 7 -28001428.614 7        48.290 7      -592.449 7         0.000  
         0.000           0.000           0.000  
 13 11 12  0 42 26.1045960  0  9G11G12G14G15G18G19G21G22G24
  16048735.468 3  -1467080.186 3        35.752 3      3524.294 3         0.000  
         0.000           0.000           0.000  
  14568721.709 6  -7288785.048 6        44.685 6      3972.193 6         0.000  
         0.000           0.000           0.000  
  12496337.680 7 -27089559.129 7        46.035 7      3107.810 7         0.000  
         0.000           0.000           0.000  
  14717270.756 6 -33243618.044 6        43.683 6     -1758.002 6         0.000  
         0.000           0.000           0.000  
  11165690.093 6 -46447645.665 6        44.727 6       486.660 6         0.000  
         0.000           0.000           0.000  
  16148672.516 4  -7264489.491 4        38.096 4      -294.090 4         0.000  
         0.000           0.000           0.000  
  13611982.380 5 -36146051.764 5        41.449 5     -2018.152 5         0.000  
         0.000           0.000           0.000  
  11265780.994 6 -39593592.729 6        45.535 6      2493.828 6         0.000  
         0.000           0.000           0.000  
  12094088.557 7 -28000836.500 7        47.983 7      -593.032 7         0.000  
         0.000           0.000           0.000  
 13 11 12  0 42 27.1055935  0  9G11G12G14G15G18G19G21G22G24
  16048064.563 3  -1470608.078 3        35.782 3      3524.411 3         0.000  
         0.000           0.000           0.000  
  14567965.469 6  -7292760.887 6        44.730 6      3971.792 6         0.000  
         0.000           0.000           0.000  
  12495745.596 7 -27092669.967 7        46.248 7      3107.673 7         0.000  
         0.000           0.000           0.000  
  14717605.524 6 -33241858.262 6        43.612 6     -1757.934 6         0.000  
         0.000           0.000           0.000  
  11165597.334 6 -46448132.508 6        44.641 6       486.378 6         0.000  
         0.000           0.000           0.000  
  16148729.032 4  -7264194.825 4        38.595 4      -294.487 4         0.000  
         0.000           0.000           0.000  
  13612366.463 5 -36144031.565 5        40.736 5     -2017.602 5         0.000  
         0.000           0.000           0.000  
  11265306.144 6 -39596088.835 6        45.448 6      2493.479 6         0.000  
         0.000           0.000           0.000  
  12094201.352 7 -28000242.756 7        47.806 7      -593.523 7         0.000  
         0.000           0.000           0.000  
 13 11 12  0 42 28.1045910  0  9G11G12G14G15G18G19G21G22G24
  16047395.516 3  -1474128.438 3        36.220 3      3523.983 3         0.000  
         0.000           0.000           0.000  
  14567210.703 6  -7296728.501 6        44.855 6      3971.260 6         0.000  
         0.000           0.000           0.000  
  12495154.850 7 -27095774.293 7        46.173 7      3107.381 7         0.000  
         0.000           0.000           0.000  
  14717939.792 6 -33240101.938 6        43.718 6     -1758.501 6         0.000  
         0.000           0.000           0.000  
  11165504.887 6 -46448617.893 6        44.865 6       485.586 6         0.000  
         0.000           0.000           0.000  
  16148785.629 4  -7263900.299 4        38.674 4      -295.041 4         0.000  
         0.000           0.000           0.000  
  13612749.677 5 -36142015.125 5        40.517 5     -2018.269 5         0.000  
         0.000           0.000           0.000  
  11264832.315 6 -39598579.537 6        45.490 6      2493.078 6         0.000  
         0.000           0.000           0.000  
  12094313.971 7 -27999649.666 7        48.032 7      -593.823 7         0.000  
         0.000           0.000           0.000  
 13 11 12  0 42 29.1055885  0  9G11G12G14G15G18G19G21G22G24
  16046724.672 3  -1477655.410 3        36.156 3      3522.894 3         0.000  
         0.000           0.000           0.000  
  14566454.433 6  -7300703.816 6        44.839 6      3971.359 6         0.000  
         0.000           0.000           0.000  
  12494563.021 7 -27098884.603 7        46.100 7      3107.101 7         0.000  
         0.000           0.000           0.000  
  14718274.457 6 -33238342.100 6        43.249 6     -1758.059 6         0.000  
         0.000           0.000           0.000  
  11165412.344 6 -46449103.821 6        44.428 6       485.290 6         0.000  
         0.000           0.000           0.000  
  16148842.245 4  -7263604.761 4        38.128 4      -295.182 4         0.000  
         0.000           0.000           0.000  
  13613133.672 5 -36139994.403 5        40.825 5     -2018.545 5         0.000  
         0.000           0.000           0.000  
  11264357.616 6 -39601074.862 6        45.597 6      2492.573 6         0.000  
         0.000           0.000           0.000  
  12094426.979 7 -27999054.855 7        48.155 7      -594.328 7         0.000  
         0.000           0.000           0.000  
 13 11 12  0 42 30.1045859  0  9G11G12G14G15G18G19G21G22G24
  16046055.110 3  -1481174.896 3        36.055 3      3522.970 3         0.000  
         0.000           0.000           0.000  
  14565699.886 6  -7304670.965 6        44.862 6      3971.098 6         0.000  
         0.000           0.000           0.000  
  12493972.534 7 -27101988.481 7        46.148 7      3107.241 7         0.000  
         0.000           0.000           0.000  
  14718608.522 6 -33236585.795 6        43.528 6     -1757.623 6         0.000  
         0.000           0.000           0.000  
  11165320.078 6 -46449588.375 6        44.703 6       484.761 6         0.000  
         0.000           0.000           0.000  
  16148898.284 4  -7263309.418 4        37.479 4      -295.340 4         0.000  
         0.000           0.000           0.000  
  13613516.869 5 -36137977.525 5        40.200 5     -2018.752 5         0.000  
         0.000           0.000           0.000  
  11263883.743 6 -39603564.858 6        45.491 6      2492.266 6         0.000  
         0.000           0.000           0.000  
  12094540.058 7 -27998460.746 7        48.384 7      -594.883 7         0.000  
         0.000           0.000           0.000  
 13 11 12  0 42 31.1055834  0  9G11G12G14G15G18G19G21G22G24
  16045384.554 3  -1484701.115 3        35.738 3      3522.316 3         0.000  
         0.000           0.000           0.000  
  14564943.754 6  -7308645.894 6        44.934 6      3971.050 6         0.000  
         0.000           0.000           0.000  
  12493380.794 7 -27105098.426 7        46.503 7      3106.791 7         0.000  
         0.000           0.000           0.000  
  14718943.299 6 -33234826.034 6        43.473 6     -1758.188 6         0.000  
         0.000           0.000           0.000  
  11165227.570 6 -46450073.558 6        44.408 6       484.236 6         0.000  
         0.000           0.000           0.000  
  16148954.334 4  -7263013.180 4        37.460 4      -296.316 4         0.000  
         0.000           0.000           0.000  
  13613900.907 5 -36135956.471 5        41.046 5     -2019.264 5         0.000  
         0.000           0.000           0.000  
  11263409.016 6 -39606059.567 6        45.446 6      2492.145 6         0.000  
         0.000           0.000           0.000  
  12094653.520 7 -27997865.017 7        48.212 7      -595.401 7         0.000  
         0.000           0.000           0.000  
 13 11 12  0 42 32.1055809  0  9G11G12G14G15G18G19G21G22G24
  16044714.577 3  -1488223.421 3        35.243 3      3521.855 3         0.000  
         0.000           0.000           0.000  
  14564188.150 6  -7312616.688 6        44.595 6      3970.726 6         0.000  
         0.000           0.000           0.000  
  12492789.783 7 -27108205.084 7        46.412 7      3106.415 7         0.000  
         0.000           0.000           0.000  
  14719277.610 6 -33233068.101 6        43.632 6     -1758.052 6         0.000  
         0.000           0.000           0.000  
  11165135.340 6 -46450557.885 6        44.705 6       484.141 6         0.000  
         0.000           0.000           0.000  
  16149010.149 4  -7262716.876 4        37.239 4      -296.458 4         0.000  
         0.000           0.000           0.000  
  13614284.504 5 -36133937.259 5        40.406 5     -2019.367 5         0.000  
         0.000           0.000           0.000  
  11262934.742 6 -39608551.471 6        45.454 6      2491.769 6         0.000  
         0.000           0.000           0.000  
  12094766.954 7 -27997269.427 7        48.327 7      -595.972 7         0.000  
         0.000           0.000           0.000  
 13 11 12  0 42 33.1055784  0  9G11G12G14G15G18G19G21G22G24
  16044044.359 3  -1491745.211 3        35.224 3      3521.496 3         0.000  
         0.000           0.000           0.000  
  14563432.539 6  -7316587.159 6        44.563 6      3970.190 6         0.000  
         0.000           0.000           0.000  
  12492198.769 7 -27111311.432 7        46.389 7      3106.192 7         0.000  
         0.000           0.000           0.000  
  14719612.021 6 -33231310.086 6        43.694 6     -1757.998 6         0.000  
         0.000           0.000           0.000  
  11165043.218 6 -46451041.718 6        44.724 6       483.588 6         0.000  
         0.000           0.000           0.000  
  16149065.825 4  -7262420.070 4        37.287 4      -296.848 4         0.000  
         0.000           0.000           0.000  
  13614667.924 5 -36131917.758 5        40.600 5     -2019.638 5         0.000  
         0.000           0.000           0.000  
  11262460.549 6 -39611042.931 6        45.271 6      2491.366 6         0.000  
         0.000           0.000           0.000  
  12094880.393 7 -27996673.257 7        48.342 7      -596.482 7         0.000  
         0.000           0.000           0.000  
 13 11 12  0 42 34.1055759  0  9G11G12G14G15G18G19G21G22G24
  16043374.451 3  -1495266.504 3        35.082 3      3520.030 3         0.000  
         0.000           0.000           0.000  
  14562677.008 6  -7320557.289 6        44.840 6      3969.802 6         0.000  
         0.000           0.000           0.000  
  12491607.789 7 -27114417.448 7        46.294 7      3105.740 7         0.000  
         0.000           0.000           0.000  
  14719946.317 6 -33229551.963 6        43.525 6     -1758.357 6         0.000  
         0.000           0.000           0.000  
  11164951.108 6 -46451525.024 6        44.680 6       483.105 6         0.000  
         0.000           0.000           0.000  
  16149121.931 4  -7262122.800 4        37.254 4      -297.808 4         0.000  
         0.000           0.000           0.000  
  13615051.331 5 -36129897.938 5        40.215 5     -2020.148 5         0.000  
         0.000           0.000           0.000  
  11261986.391 6 -39613533.935 6        45.444 6      2490.607 6         0.000  
         0.000           0.000           0.000  
  12094993.917 7 -27996076.462 7        48.140 7      -597.086 7         0.000  
         0.000           0.000           0.000  
 13 11 12  0 42 35.1045733  0  9G11G12G14G15G18G19G21G22G24
  16042704.194 3  -1498783.676 3        34.484 3      3520.200 3         0.000  
         0.000           0.000           0.000  
  14561922.331 6  -7324523.085 6        44.469 6      3969.568 6         0.000  
         0.000           0.000           0.000  
  12491017.282 7 -27117520.000 7        46.276 7      3105.522 7         0.000  
         0.000           0.000           0.000  
  14720280.480 6 -33227795.469 6        43.449 6     -1758.099 6         0.000  
         0.000           0.000           0.000  
  11164859.237 6 -46452007.293 6        44.587 6       482.293 6         0.000  
         0.000           0.000           0.000  
  16149178.435 4  -7261825.248 4        37.559 4      -298.130 4         0.000  
         0.000           0.000           0.000  
  13615434.473 5 -36127879.777 5        40.674 5     -2020.613 5         0.000  
         0.000           0.000           0.000  
  11261512.874 6 -39616021.933 6        45.286 6      2490.232 6         0.000  
         0.000           0.000           0.000  
  12095107.523 7 -27995479.627 7        48.329 7      -597.767 7         0.000  
         0.000           0.000           0.000  
 13 11 12  0 42 36.1055708  0  9G11G12G14G15G18G19G21G22G24
  16042032.061 2  -1502307.424 2        33.311 2      3519.291 2         0.000  
         0.000           0.000           0.000  
  14561166.183 6  -7328496.503 6        44.596 6      3969.506 6         0.000  
         0.000           0.000           0.000  
  12490425.701 7 -27120628.433 7        46.330 7      3104.986 7         0.000  
         0.000           0.000           0.000  
  14720615.255 6 -33226035.363 6        43.720 6     -1758.612 6         0.000  
         0.000           0.000           0.000  
  11164767.451 6 -46452490.019 6        44.494 6       481.836 6         0.000  
         0.000           0.000           0.000  
  16149234.989 4  -7261526.642 4        38.001 4      -298.751 4         0.000  
         0.000           0.000           0.000  
  13615818.435 5 -36125857.263 5        40.402 5     -2020.571 5         0.000  
         0.000           0.000           0.000  
  11261038.454 6 -39618514.476 6        45.135 6      2489.838 6         0.000  
         0.000           0.000           0.000  
  12095221.507 7 -27994881.016 7        48.218 7      -598.356 7         0.000  
         0.000           0.000           0.000  
 13 11 12  0 42 37.1045683  0  9G11G12G14G15G18G19G21G22G24
  16041362.174 2  -1505823.593 2        33.664 2      3520.360 2         0.000  
         0.000           0.000           0.000  
  14560411.632 6  -7332461.664 6        44.662 6      3969.005 6         0.000  
         0.000           0.000           0.000  
  12489835.438 7 -27123730.357 7        46.469 7      3105.084 7         0.000  
         0.000           0.000           0.000  
  14720949.434 6 -33224278.701 6        43.476 6     -1758.678 6         0.000  
         0.000           0.000           0.000  
  11164675.889 6 -46452971.288 6        44.441 6       481.492 6         0.000  
         0.000           0.000           0.000  
  16149291.503 4  -7261228.133 4        38.381 4      -298.886 4         0.000  
         0.000           0.000           0.000  
  13616201.769 5 -36123838.491 5        40.230 5     -2020.949 5         0.000  
         0.000           0.000           0.000  
  11260565.197 6 -39621001.591 6        45.122 6      2489.488 6         0.000  
         0.000           0.000           0.000  
  12095335.375 7 -27994283.021 7        48.199 7      -599.121 7         0.000  
         0.000           0.000           0.000  
 13 11 12  0 42 38.1055658  0  9G11G12G14G15G18G19G21G22G24
  16040691.042 3  -1509346.407 3        34.784 3      3518.746 3         0.000  
         0.000           0.000           0.000  
  14559655.662 6  -7336434.554 6        44.709 6      3968.932 6         0.000  
         0.000           0.000           0.000  
  12489244.163 7 -27126838.277 7        46.407 7      3104.867 7         0.000  
         0.000           0.000           0.000  
  14721284.384 6 -33222518.541 6        43.642 6     -1758.529 6         0.000  
         0.000           0.000           0.000  
  11164584.165 6 -46453453.126 6        44.575 6       481.238 6         0.000  
         0.000           0.000           0.000  
  16149348.349 4  -7260928.661 4        37.665 4      -299.252 4         0.000  
         0.000           0.000           0.000  
  13616586.179 5 -36121815.476 5        40.279 5     -2021.090 5         0.000  
         0.000           0.000           0.000  
  11260090.911 6 -39623493.343 6        45.372 6      2489.090 6         0.000  
         0.000           0.000           0.000  
  12095449.479 7 -27993683.365 7        48.194 7      -599.442 7         0.000  
         0.000           0.000           0.000  
 13 11 12  0 42 39.1045633  0  9G11G12G14G15G18G19G21G22G24
  16040021.857 3  -1512861.766 3        35.469 3      3519.068 3         0.000  
         0.000           0.000           0.000  
  14558901.332 6  -7340399.301 6        44.520 6      3968.626 6         0.000  
         0.000           0.000           0.000  
  12488654.147 7 -27129939.801 7        46.741 7      3104.575 7         0.000  
         0.000           0.000           0.000  
  14721618.749 6 -33220761.933 6        43.569 6     -1758.489 6         0.000  
         0.000           0.000           0.000  
  11164492.699 6 -46453933.600 6        44.790 6       480.793 6         0.000  
         0.000           0.000           0.000  
  16149405.236 4  -7260629.413 4        37.988 4      -299.681 4         0.000  
         0.000           0.000           0.000  
  13616969.748 5 -36119796.336 5        40.133 5     -2020.830 5         0.000  
         0.000           0.000           0.000  
  11259617.785 6 -39625979.812 6        45.366 6      2488.575 6         0.000  
         0.000           0.000           0.000  
  12095563.433 7 -27993084.441 7        48.289 7      -599.726 7         0.000  
         0.000           0.000           0.000  
 13 11 12  0 42 40.1055607  0  9G11G12G14G15G18G19G21G22G24
  16039351.544 3  -1516383.742 3        34.931 3      3517.484 3         0.000  
         0.000           0.000           0.000  
  14558145.487 6  -7344371.740 6        44.688 6      3968.240 6         0.000  
         0.000           0.000           0.000  
  12488062.971 7 -27133047.285 7        46.635 7      3104.200 7         0.000  
         0.000           0.000           0.000  
  14721953.737 6 -33219001.792 6        43.696 6     -1758.396 6         0.000  
         0.000           0.000           0.000  
  11164401.066 6 -46454414.607 6        44.495 6       480.579 6         0.000  
         0.000           0.000           0.000  
  16149462.098 4  -7260329.154 4        37.682 4      -300.020 4         0.000  
         0.000           0.000           0.000  
  13617354.129 5 -36117772.905 5        40.379 5     -2021.614 5         0.000  
         0.000           0.000           0.000  
  11259143.787 6 -39628470.878 6        45.300 6      2488.409 6         0.000  
         0.000           0.000           0.000  
  12095677.830 7 -27992483.787 7        48.131 7      -600.315 7         0.000  
         0.000           0.000           0.000  
 13 11 12  0 42 41.1045582  0  9G11G12G14G15G18G19G21G22G24
  16038682.949 3  -1519898.215 3        35.041 3      3517.141 3         0.000  
         0.000           0.000           0.000  
  14557391.132 6  -7348335.998 6        44.567 6      3968.006 6         0.000  
         0.000           0.000           0.000  
  12487472.988 7 -27136148.325 7        46.558 7      3103.993 7         0.000  
         0.000           0.000           0.000  
  14722287.991 6 -33217245.160 6        43.554 6     -1758.431 6         0.000  
         0.000           0.000           0.000  
  11164309.801 6 -46454894.230 6        44.688 6       479.931 6         0.000  
         0.000           0.000           0.000  
  16149518.930 4  -7260029.079 4        37.084 4      -300.232 4         0.000  
         0.000           0.000           0.000  
  13617737.833 4 -36115753.302 4        39.898 4     -2021.390 4         0.000  
         0.000           0.000           0.000  
  11258670.699 6 -39630956.599 6        45.621 6      2487.999 6         0.000  
         0.000           0.000           0.000  
  12095792.053 7 -27991883.813 7        48.314 7      -600.927 7         0.000  
         0.000           0.000           0.000  
 13 11 12  0 42 42.1055557  0  9G11G12G14G15G18G19G21G22G24
  16038013.102 3  -1523419.284 3        35.145 3      3517.674 3         0.000  
         0.000           0.000           0.000  
  14556635.253 6  -7352307.926 6        44.571 6      3967.940 6         0.000  
         0.000           0.000           0.000  
  12486881.769 7 -27139255.308 7        46.531 7      3103.816 7         0.000  
         0.000           0.000           0.000  
  14722623.066 6 -33215484.969 6        43.692 6     -1758.396 6         0.000  
         0.000           0.000           0.000  
  11164218.499 6 -46455374.343 6        44.690 6       479.345 6         0.000  
         0.000           0.000           0.000  
  16149575.969 4  -7259727.957 4        37.405 4      -300.269 4         0.000  
         0.000           0.000           0.000  
  13618122.505 5 -36113729.396 5        40.481 5     -2022.139 5         0.000  
         0.000           0.000           0.000  
  11258196.897 6 -39633446.891 6        45.298 6      2487.672 6         0.000  
         0.000           0.000           0.000  
  12095906.596 7 -27991282.084 7        48.138 7      -601.482 7         0.000  
         0.000           0.000           0.000  
 13 11 12  0 42 43.1055532  0  9G11G12G14G15G18G19G21G22G24
  16037343.474 2  -1526936.401 2        33.034 2      3517.943 2         0.000  
         0.000           0.000           0.000  
  14555880.043 6  -7356275.623 6        44.044 6      3967.507 6         0.000  
         0.000           0.000           0.000  
  12486291.276 7 -27142358.939 7        46.382 7      3103.362 7         0.000  
         0.000           0.000           0.000  
  14722957.912 6 -33213726.507 6        43.959 6     -1758.321 6         0.000  
         0.000           0.000           0.000  
  11164127.448 6 -46455853.533 6        44.701 6       478.593 6         0.000  
         0.000           0.000           0.000  
  16149633.051 4  -7259426.730 4        37.602 4      -301.768 4         0.000  
         0.000           0.000           0.000  
  13618507.059 5 -36111707.252 5        40.177 5     -2022.744 5         0.000  
         0.000           0.000           0.000  
  11257723.589 6 -39635934.321 6        45.387 6      2487.467 6         0.000  
         0.000           0.000           0.000  
  12096021.026 7 -27990680.423 7        48.240 7      -601.910 7         0.000  
         0.000           0.000           0.000  
 13 11 12  0 42 44.1055507  0  9G11G12G14G15G18G19G21G22G24
  16036673.343 2  -1530453.028 2        33.734 2      3516.955 2         0.000  
         0.000           0.000           0.000  
  14555124.889 6  -7360243.065 6        44.029 6      3967.474 6         0.000  
         0.000           0.000           0.000  
  12485700.812 7 -27145462.306 7        46.331 7      3103.205 7         0.000  
         0.000           0.000           0.000  
  14723292.816 6 -33211968.032 6        44.131 6     -1758.556 6         0.000  
         0.000           0.000           0.000  
  11164036.214 6 -46456332.293 6        44.666 6       478.425 6         0.000  
         0.000           0.000           0.000  
  16149690.293 4  -7259125.064 4        37.457 4      -301.246 4         0.000  
         0.000           0.000           0.000  
  13618891.802 5 -36109684.889 5        40.083 5     -2022.387 5         0.000  
         0.000           0.000           0.000  
  11257250.466 6 -39638421.354 6        45.523 6      2486.787 6         0.000  
         0.000           0.000           0.000  
  12096135.699 7 -27990078.245 7        48.229 7      -602.421 7         0.000  
         0.000           0.000           0.000  
 13 11 12  0 42 45.1055482  0  9G11G12G14G15G18G19G21G22G24
  16036004.203 3  -1533969.299 3        34.419 3      3516.303 3         0.000  
         0.000           0.000           0.000  
  14554369.770 6  -7364210.315 6        43.939 6      3967.082 6         0.000  
         0.000           0.000           0.000  
  12485110.321 7 -27148565.492 7        46.499 7      3103.149 7         0.000  
         0.000           0.000           0.000  
  14723627.761 6 -33210209.598 6        44.062 6     -1758.411 6         0.000  
         0.000           0.000           0.000  
  11163945.133 6 -46456810.667 6        44.704 6       478.173 6         0.000  
         0.000           0.000           0.000  
  16149747.530 4  -7258823.049 4        37.810 4      -302.490 4         0.000  
         0.000           0.000           0.000  
  13619276.508 5 -36107662.340 5        40.636 5     -2022.537 5         0.000  
         0.000           0.000           0.000  
  11256777.311 6 -39640908.077 6        45.311 6      2486.568 6         0.000  
         0.000           0.000           0.000  
  12096250.337 7 -27989475.598 7        48.260 7      -602.908 7         0.000  
         0.000           0.000           0.000  
 13 11 12  0 42 46.1045456  0  9G11G12G14G15G18G19G21G22G24
  16035336.201 2  -1537481.634 2        33.867 2      3514.937 2         0.000  
         0.000           0.000           0.000  
  14553615.370 6  -7368173.395 6        44.005 6      3967.020 6         0.000  
         0.000           0.000           0.000  
  12484520.485 7 -27151665.375 7        46.325 7      3102.779 7         0.000  
         0.000           0.000           0.000  
  14723962.257 6 -33208452.952 6        44.026 6     -1758.308 6         0.000  
         0.000           0.000           0.000  
  11163854.126 6 -46457288.167 6        44.832 6       478.166 6         0.000  
         0.000           0.000           0.000  
  16149804.892 4  -7258520.958 4        38.137 4      -302.760 4         0.000  
         0.000           0.000           0.000  
  13619661.003 5 -36105641.625 5        40.364 5     -2022.992 5         0.000  
         0.000           0.000           0.000  
  11256304.742 6 -39643391.973 6        45.306 6      2485.975 6         0.000  
         0.000           0.000           0.000  
  12096364.959 7 -27988873.081 7        48.476 7      -603.363 7         0.000  
         0.000           0.000           0.000  
 13 11 12  0 42 47.1055431  0  9G11G12G14G15G18G19G21G22G24
  16034666.355 3  -1541000.513 3        34.036 3      3515.250 3         0.000  
         0.000           0.000           0.000  
  14552859.589 6  -7372144.124 6        43.895 6      3966.508 6         0.000  
         0.000           0.000           0.000  
  12483929.537 7 -27154771.182 7        46.576 7      3102.349 7         0.000  
         0.000           0.000           0.000  
  14724297.253 6 -33206692.723 6        43.910 6     -1758.419 6         0.000  
         0.000           0.000           0.000  
  11163763.104 6 -46457766.153 6        44.706 6       477.177 6         0.000  
         0.000           0.000           0.000  
  16149862.722 4  -7258217.796 4        37.624 4      -302.927 4         0.000  
         0.000           0.000           0.000  
  13620046.471 5 -36103616.589 5        40.877 5     -2023.318 5         0.000  
         0.000           0.000           0.000  
  11255831.235 6 -39645880.439 6        45.374 6      2485.742 6         0.000  
         0.000           0.000           0.000  
  12096480.071 7 -27988268.819 7        48.290 7      -604.050 7         0.000  
         0.000           0.000           0.000  
 13 11 12  0 42 48.1045406  0  9G11G12G14G15G18G19G21G22G24
  16033997.952 3  -1544511.913 3        34.009 3      3514.593 3         0.000  
         0.000           0.000           0.000  
  14552105.549 6  -7376106.626 6        44.397 6      3966.585 6         0.000  
         0.000           0.000           0.000  
  12483339.799 7 -27157870.511 7        46.572 7      3102.226 7         0.000  
         0.000           0.000           0.000  
  14724631.517 6 -33204935.965 6        43.897 6     -1758.421 6         0.000  
         0.000           0.000           0.000  
  11163672.363 6 -46458242.719 6        44.733 6       476.705 6         0.000  
         0.000           0.000           0.000  
  16149920.609 4  -7257914.811 4        38.211 4      -303.730 4         0.000  
         0.000           0.000           0.000  
  13620431.320 5 -36101595.338 5        40.704 5     -2023.304 5         0.000  
         0.000           0.000           0.000  
  11255358.813 6 -39648363.514 6        45.422 6      2485.424 6         0.000  
         0.000           0.000           0.000  
  12096595.029 7 -27987665.214 7        48.192 7      -604.451 7         0.000  
         0.000           0.000           0.000  
 13 11 12  0 42 49.1055381  0  9G11G12G14G15G18G19G21G22G24
  16033327.898 2  -1548029.933 2        33.982 2      3513.747 2         0.000  
         0.000           0.000           0.000  
  14551349.981 6  -7380076.843 6        44.336 6      3966.204 6         0.000  
         0.000           0.000           0.000  
  12482748.923 7 -27160975.822 7        46.628 7      3102.021 7         0.000  
         0.000           0.000           0.000  
  14724966.570 6 -33203175.710 6        44.161 6     -1758.631 6         0.000  
         0.000           0.000           0.000  
  11163581.549 6 -46458719.834 6        44.672 6       476.391 6         0.000  
         0.000           0.000           0.000  
  16149978.764 4  -7257610.798 4        38.064 4      -304.107 4         0.000  
         0.000           0.000           0.000  
  13620817.101 5 -36099569.842 5        41.147 5     -2023.647 5         0.000  
         0.000           0.000           0.000  
  11254885.434 6 -39650851.210 6        45.463 6      2485.162 6         0.000  
         0.000           0.000           0.000  
  12096710.255 7 -27987059.906 7        48.377 7      -604.878 7         0.000  
         0.000           0.000           0.000  
 13 11 12  0 42 50.1065356  0  9G11G12G14G15G18G19G21G22G24
  16032658.169 3  -1551547.499 3        34.629 3      3513.977 3         0.000  
         0.000           0.000           0.000  
  14550594.340 6  -7384046.811 6        44.042 6      3965.938 6         0.000  
         0.000           0.000           0.000  
  12482158.089 7 -27164080.902 7        46.293 7      3101.837 7         0.000  
         0.000           0.000           0.000  
  14725301.684 6 -33201415.437 6        44.151 6     -1758.393 6         0.000  
         0.000           0.000           0.000  
  11163490.921 6 -46459196.515 6        44.753 6       476.346 6         0.000  
         0.000           0.000           0.000  
  16150036.926 4  -7257306.396 4        37.907 4      -304.475 4         0.000  
         0.000           0.000           0.000  
  13621203.021 5 -36097544.113 5        41.157 5     -2023.817 5         0.000  
         0.000           0.000           0.000  
  11254412.203 6 -39653338.534 6        45.437 6      2484.657 6         0.000  
         0.000           0.000           0.000  
  12096825.558 7 -27986454.091 7        48.109 7      -605.396 7         0.000  
         0.000           0.000           0.000  
 13 11 12  0 42 51.1055330  0  9G11G12G14G15G18G19G21G22G24
  16031990.215 2  -1555057.563 2        32.967 2      3513.758 2         0.000  
         0.000           0.000           0.000  
  14549840.105 6  -7388008.565 6        43.852 6      3965.590 6         0.000  
         0.000           0.000           0.000  
  12481568.450 7 -27167179.499 7        46.409 7      3101.580 7         0.000  
         0.000           0.000           0.000  
  14725635.964 6 -33199658.639 6        44.251 6     -1758.481 6         0.000  
         0.000           0.000           0.000  
  11163400.568 6 -46459671.783 6        44.893 6       475.470 6         0.000  
         0.000           0.000           0.000  
  16150095.009 4  -7257002.154 4        38.113 4      -304.867 4         0.000  
         0.000           0.000           0.000  
  13621588.157 5 -36095522.155 5        41.291 5     -2024.380 5         0.000  
         0.000           0.000           0.000  
  11253940.063 6 -39655820.493 6        45.495 6      2484.075 6         0.000  
         0.000           0.000           0.000  
  12096940.597 7 -27985848.932 7        48.076 7      -606.264 7         0.000  
         0.000           0.000           0.000  
 13 11 12  0 42 52.1065305  0  9G11G12G14G15G18G19G21G22G24
  16031320.845 3  -1558574.125 3        34.529 3      3512.609 3         0.000  
         0.000           0.000           0.000  
  14549084.633 6  -7391977.916 6        44.124 6      3965.414 6         0.000  
         0.000           0.000           0.000  
  12480977.653 7 -27170283.975 7        46.425 7      3101.211 7         0.000  
         0.000           0.000           0.000  
  14725971.021 6 -33197898.225 6        44.393 6     -1758.619 6         0.000  
         0.000           0.000           0.000  
  11163310.036 6 -46460147.489 6        44.722 6       475.090 6         0.000  
         0.000           0.000           0.000  
  16150152.767 4  -7256696.808 4        37.732 4      -305.598 4         0.000  
         0.000           0.000           0.000  
  13621974.190 5 -36093495.849 5        41.286 5     -2024.299 5         0.000  
         0.000           0.000           0.000  
  11253466.815 6 -39658306.957 6        45.216 6      2483.795 6         0.000  
         0.000           0.000           0.000  
  12097055.988 7 -27985241.975 7        48.135 7      -606.623 7         0.000  
         0.000           0.000           0.000  
 13 11 12  0 42 53.1055280  0  9G11G12G14G15G18G19G21G22G24
  16030652.886 2  -1562083.232 2        33.675 2      3512.719 2         0.000  
         0.000           0.000           0.000  
  14548330.805 6  -7395939.090 6        44.444 6      3965.197 6         0.000  
         0.000           0.000           0.000  
  12480388.084 7 -27173382.005 7        46.208 7      3100.905 7         0.000  
         0.000           0.000           0.000  
  14726305.499 6 -33196141.326 6        43.919 6     -1758.559 6         0.000  
         0.000           0.000           0.000  
  11163219.879 6 -46460621.800 6        44.639 6       474.458 6         0.000  
         0.000           0.000           0.000  
  16150210.234 4  -7256391.663 4        37.504 4      -305.403 4         0.000  
         0.000           0.000           0.000  
  13622359.453 5 -36091473.353 5        41.084 5     -2025.014 5         0.000  
         0.000           0.000           0.000  
  11252994.584 6 -39660788.083 6        45.185 6      2483.429 6         0.000  
         0.000           0.000           0.000  
  12097171.334 7 -27984635.717 7        48.286 7      -607.166 7         0.000  
         0.000           0.000           0.000  
 13 11 12  0 42 54.1055255  0  9G11G12G14G15G18G19G21G22G24
  16029984.496 3  -1565595.352 3        34.362 3      3512.406 3         0.000  
         0.000           0.000           0.000  
  14547576.479 6  -7399903.929 6        44.359 6      3964.828 6         0.000  
         0.000           0.000           0.000  
  12479797.943 7 -27176482.848 7        46.241 7      3100.629 7         0.000  
         0.000           0.000           0.000  
  14726640.268 6 -33194382.597 6        44.576 6     -1758.813 6         0.000  
         0.000           0.000           0.000  
  11163129.667 6 -46461096.115 6        44.635 6       474.196 6         0.000  
         0.000           0.000           0.000  
  16150268.237 4  -7256085.739 4        37.041 4      -306.384 4         0.000  
         0.000           0.000           0.000  
  13622745.030 5 -36089448.556 5        41.392 5     -2025.065 5         0.000  
         0.000           0.000           0.000  
  11252521.999 6 -39663271.275 6        45.270 6      2483.249 6         0.000  
         0.000           0.000           0.000  
  12097286.865 7 -27984028.292 7        48.339 7      -607.775 7         0.000  
         0.000           0.000           0.000  
 13 11 12  0 42 55.1055230  0  9G11G12G14G15G18G19G21G22G24
  16029315.702 3  -1569107.068 3        34.324 3      3511.355 3         0.000  
         0.000           0.000           0.000  
  14546822.271 6  -7403868.540 6        44.429 6      3964.353 6         0.000  
         0.000           0.000           0.000  
  12479207.790 7 -27179583.465 7        46.083 7      3100.419 7         0.000  
         0.000           0.000           0.000  
  14726975.122 6 -33192623.888 6        44.502 6     -1758.830 6         0.000  
         0.000           0.000           0.000  
  11163039.472 6 -46461570.009 6        44.542 6       473.608 6         0.000  
         0.000           0.000           0.000  
  16150325.923 3  -7255779.429 3        36.379 3      -306.817 3         0.000  
         0.000           0.000           0.000  
  13623130.768 5 -36087423.548 5        41.371 5     -2025.154 5         0.000  
         0.000           0.000           0.000  
  11252049.389 6 -39665754.094 6        45.449 6      2482.805 6         0.000  
         0.000           0.000           0.000  
  12097402.654 7 -27983420.375 7        48.206 7      -608.043 7         0.000  
         0.000           0.000           0.000  
 13 11 12  0 42 56.1055205  0  9G11G12G14G15G18G19G21G22G24
  16028646.336 2  -1572618.383 2        33.290 2      3511.812 2         0.000  
         0.000           0.000           0.000  
  14546068.130 6  -7407832.952 6        44.550 6      3964.137 6         0.000  
         0.000           0.000           0.000  
  12478617.697 7 -27182683.886 7        46.215 7      3100.310 7         0.000  
         0.000           0.000           0.000  
  14727310.004 6 -33190865.207 6        44.241 6     -1758.626 6         0.000  
         0.000           0.000           0.000  
  11162949.340 6 -46462043.519 6        44.462 6       473.317 6         0.000  
         0.000           0.000           0.000  
  16150384.213 4  -7255472.749 4        37.008 4      -306.766 4         0.000  
         0.000           0.000           0.000  
  13623516.559 5 -36085398.340 5        41.236 5     -2025.201 5         0.000  
         0.000           0.000           0.000  
  11251576.714 6 -39668236.595 6        45.340 6      2482.537 6         0.000  
         0.000           0.000           0.000  
  12097518.541 7 -27982811.986 7        48.448 7      -608.640 7         0.000  
         0.000           0.000           0.000  
 13 11 12  0 42 57.1055179  0  9G11G12G14G15G18G19G21G22G24
  16027977.257 3  -1576129.275 3        34.564 3      3510.165 3         0.000  
         0.000           0.000           0.000  
  14545314.039 6  -7411797.138 6        44.510 6      3963.988 6         0.000  
         0.000           0.000           0.000  
  12478027.794 7 -27185784.093 7        46.494 7      3100.151 7         0.000  
         0.000           0.000           0.000  
  14727644.910 6 -33189106.539 6        44.579 6     -1758.712 6         0.000  
         0.000           0.000           0.000  
  11162859.434 6 -46462516.624 6        44.567 6       472.815 6         0.000  
         0.000           0.000           0.000  
  16150442.914 3  -7255165.686 3        36.921 3      -307.212 3         0.000  
         0.000           0.000           0.000  
  13623902.313 5 -36083372.939 5        41.064 5     -2025.418 5         0.000  
         0.000           0.000           0.000  
  11251104.209 6 -39670718.739 6        45.242 6      2481.615 6         0.000  
         0.000           0.000           0.000  
  12097634.421 7 -27982203.112 7        48.408 7      -609.341 7         0.000  
         0.000           0.000           0.000  
 13 11 12  0 42 58.1055154  0  9G11G12G14G15G18G19G21G22G24
  16027308.968 2  -1579639.663 2        33.264 2      3509.637 2         0.000  
         0.000           0.000           0.000  
  14544559.973 6  -7415760.996 6        44.320 6      3963.828 6         0.000  
         0.000           0.000           0.000  
  12477438.041 7 -27188883.969 7        46.527 7      3099.663 7         0.000  
         0.000           0.000           0.000  
  14727979.830 6 -33187347.777 6        44.618 6     -1758.859 6         0.000  
         0.000           0.000           0.000  
  11162769.628 6 -46462989.216 6        44.877 6       472.161 6         0.000  
         0.000           0.000           0.000  
  16150501.648 4  -7254858.101 4        37.488 4      -307.601 4         0.000  
         0.000           0.000           0.000  
  13624288.263 5 -36081347.232 5        41.709 5     -2025.542 5         0.000  
         0.000           0.000           0.000  
  11250631.912 6 -39673200.440 6        45.402 6      2481.471 6         0.000  
         0.000           0.000           0.000  
  12097750.287 7 -27981593.611 7        48.152 7      -609.879 7         0.000  
         0.000           0.000           0.000  
 13 11 12  0 42 59.1045129  0  9G11G12G14G15G18G19G21G22G24
  16026641.867 3  -1583145.993 3        34.340 3      3509.406 3         0.000  
         0.000           0.000           0.000  
  14543806.722 6  -7419720.562 6        44.586 6      3963.501 6         0.000  
         0.000           0.000           0.000  
  12476848.957 7 -27191980.423 7        46.436 7      3099.424 7         0.000  
         0.000           0.000           0.000  
  14728314.435 6 -33185590.685 6        44.470 6     -1758.846 6         0.000  
         0.000           0.000           0.000  
  11162680.042 6 -46463460.816 6        44.853 6       471.829 6         0.000  
         0.000           0.000           0.000  
  16150560.102 4  -7254550.351 4        37.786 4      -308.262 4         0.000  
         0.000           0.000           0.000  
  13624673.765 5 -36079323.229 5        41.746 5     -2026.079 5         0.000  
         0.000           0.000           0.000  
  11250160.035 6 -39675679.196 6        45.308 6      2480.860 6         0.000  
         0.000           0.000           0.000  
  12097866.114 7 -27980984.129 7        48.088 7      -610.407 7         0.000  
         0.000           0.000           0.000  
 13 11 12  0 43  0.1055104  0  9G11G12G14G15G18G19G21G22G24
  16025973.444 3  -1586658.827 3        34.720 3      3509.100 3         0.000  
         0.000           0.000           0.000  
  14543051.989 6  -7423687.728 6        44.524 6      3963.169 6         0.000  
         0.000           0.000           0.000  
  12476258.609 7 -27195082.763 7        46.264 7      3099.149 7         0.000  
         0.000           0.000           0.000  
  14728649.725 6 -33183829.986 6        44.393 6     -1758.976 6         0.000  
         0.000           0.000           0.000  
  11162590.276 6 -46463932.867 6        44.687 6       471.189 6         0.000  
         0.000           0.000           0.000  
  16150618.698 4  -7254241.486 4        37.475 4      -308.425 4         0.000  
         0.000           0.000           0.000  
  13625060.300 5 -36077294.875 5        41.445 5     -2026.670 5         0.000  
         0.000           0.000           0.000  
  11249687.554 6 -39678162.475 6        45.258 6      2480.546 6         0.000  
         0.000           0.000           0.000  
  12097982.327 7 -27980372.840 7        48.206 7      -611.119 7         0.000  
         0.000           0.000           0.000  
 13 11 12  0 43  1.1065079  0  9G11G12G14G15G18G19G21G22G24
  16025305.092 2  -1590171.082 2        33.970 2      3508.349 2         0.000  
         0.000           0.000           0.000  
  14542297.257 6  -7427654.512 6        44.594 6      3962.769 6         0.000  
         0.000           0.000           0.000  
  12475668.245 7 -27198184.724 7        46.269 7      3098.750 7         0.000  
         0.000           0.000           0.000  
  14728984.851 6 -33182069.153 6        43.991 6     -1758.895 6         0.000  
         0.000           0.000           0.000  
  11162500.549 6 -46464404.345 6        44.822 6       471.016 6         0.000  
         0.000           0.000           0.000  
  16150677.614 4  -7253932.076 4        37.839 4      -309.200 4         0.000  
         0.000           0.000           0.000  
  13625446.799 5 -36075266.163 5        41.887 5     -2027.022 5         0.000  
         0.000           0.000           0.000  
  11249215.099 6 -39680645.233 6        45.451 6      2480.003 6         0.000  
         0.000           0.000           0.000  
  12098098.732 7 -27979760.912 7        48.135 7      -611.594 7         0.000  
         0.000           0.000           0.000  
 13 11 12  0 43  2.1055054  0  9G11G12G14G15G18G19G21G22G24
  16024638.434 2  -1593675.801 2        33.848 2      3508.489 2         0.000  
         0.000           0.000           0.000  
  14541544.095 6  -7431613.042 6        44.630 6      3962.160 6         0.000  
         0.000           0.000           0.000  
  12475079.163 7 -27201280.159 7        46.492 7      3098.343 7         0.000  
         0.000           0.000           0.000  
  14729319.232 6 -33180311.723 6        43.986 6     -1759.529 6         0.000  
         0.000           0.000           0.000  
  11162411.064 6 -46464874.355 6        44.537 6       469.772 6         0.000  
         0.000           0.000           0.000  
  16150736.808 4  -7253622.793 4        38.800 4      -309.454 4         0.000  
         0.000           0.000           0.000  
  13625832.665 5 -36073241.185 5        42.268 5     -2026.923 5         0.000  
         0.000           0.000           0.000  
  11248743.734 6 -39683122.583 6        45.492 6      2479.513 6         0.000  
         0.000           0.000           0.000  
  12098215.038 7 -27979149.602 7        48.228 7      -612.345 7         0.000  
         0.000           0.000           0.000  
 13 11 12  0 43  3.1065029  0  9G11G12G14G15G18G19G21G22G24
  16023969.992 3  -1597186.995 3        34.723 3      3507.048 3         0.000  
         0.000           0.000           0.000  
  14540789.447 6  -7435579.129 6        44.769 6      3962.007 6         0.000  
         0.000           0.000           0.000  
  12474489.090 7 -27204381.458 7        46.471 7      3098.115 7         0.000  
         0.000           0.000           0.000  
  14729654.185 6 -33178550.671 6        43.462 6     -1759.339 6         0.000  
         0.000           0.000           0.000  
  11162321.495 6 -46465344.783 6        44.561 6       469.720 6         0.000  
         0.000           0.000           0.000  
  16150796.307 4  -7253312.369 4        39.320 4      -310.375 4         0.000  
         0.000           0.000           0.000  
  13626219.167 5 -36071211.817 5        41.788 5     -2027.909 5         0.000  
         0.000           0.000           0.000  
  11248271.497 6 -39685604.414 6        45.430 6      2479.123 6         0.000  
         0.000           0.000           0.000  
  12098331.836 7 -27978536.440 7        48.206 7      -613.000 7         0.000  
         0.000           0.000           0.000  
 13 11 12  0 43  4.1055003  0  9G11G12G14G15G18G19G21G22G24
  16023302.904 3  -1600690.660 3        34.517 3      3506.432 3         0.000  
         0.000           0.000           0.000  
  14540036.414 6  -7439536.992 6        44.695 6      3961.797 6         0.000  
         0.000           0.000           0.000  
  12473900.231 7 -27207476.246 7        46.358 7      3097.777 7         0.000  
         0.000           0.000           0.000  
  14729988.331 6 -33176793.050 6        43.436 6     -1759.461 6         0.000  
         0.000           0.000           0.000  
  11162232.300 6 -46465813.777 6        44.408 6       469.188 6         0.000  
         0.000           0.000           0.000  
  16150855.823 4  -7253002.084 4        38.935 4      -311.013 4         0.000  
         0.000           0.000           0.000  
  13626605.045 5 -36069186.222 5        41.764 5     -2027.922 5         0.000  
         0.000           0.000           0.000  
  11247800.282 6 -39688080.851 6        45.363 6      2478.921 6         0.000  
         0.000           0.000           0.000  
  12098448.372 7 -27977923.930 7        48.299 7      -613.369 7         0.000  
         0.000           0.000           0.000  
 13 11 12  0 43  5.1054978  0  9G11G12G14G15G18G19G21G22G24
  16022635.789 3  -1604197.271 3        36.333 3      3505.927 3         0.000  
         0.000           0.000           0.000  
  14539282.718 6  -7443498.430 6        44.636 6      3961.156 6         0.000  
         0.000           0.000           0.000  
  12473310.916 7 -27210573.772 7        46.446 7      3097.554 7         0.000  
         0.000           0.000           0.000  
  14730322.841 6 -33175033.547 6        43.249 6     -1759.593 6         0.000  
         0.000           0.000           0.000  
  11162143.082 6 -46466282.679 6        44.563 6       468.642 6         0.000  
         0.000           0.000           0.000  
  16150915.580 4  -7252690.951 4        38.649 4      -311.111 4         0.000  
         0.000           0.000           0.000  
  13626991.426 5 -36067158.251 5        41.417 5     -2027.928 5         0.000  
         0.000           0.000           0.000  
  11247328.568 6 -39690559.282 6        45.290 6      2478.152 6         0.000  
         0.000           0.000           0.000  
  12098565.096 7 -27977310.154 7        48.399 7      -614.092 7         0.000  
         0.000           0.000           0.000  
 13 11 12  0 43  6.1054953  0  9G11G12G14G15G18G19G21G22G24
  16021969.241 3  -1607703.316 3        35.693 3      3505.796 3         0.000  
         0.000           0.000           0.000  
  14538529.073 6  -7447459.492 6        44.323 6      3960.952 6         0.000  
         0.000           0.000           0.000  
  12472721.640 7 -27213670.918 7        46.275 7      3097.090 7         0.000  
         0.000           0.000           0.000  
  14730657.434 6 -33173273.885 6        43.392 6     -1759.656 6         0.000  
         0.000           0.000           0.000  
  11162054.098 6 -46466751.011 6        44.922 6       468.117 6         0.000  
         0.000           0.000           0.000  
  16150975.174 4  -7252379.274 4        39.254 4      -311.862 4         0.000  
         0.000           0.000           0.000  
  13627377.721 5 -36065129.903 5        41.498 5     -2028.370 5         0.000  
         0.000           0.000           0.000  
  11246857.039 6 -39693037.203 6        45.402 6      2477.766 6         0.000  
         0.000           0.000           0.000  
  12098682.071 7 -27976695.728 7        48.476 7      -614.600 7         0.000  
         0.000           0.000           0.000  
 13 11 12  0 43  7.1054928  0  9G11G12G14G15G18G19G21G22G24
  16021302.675 3  -1611208.844 3        35.896 3      3505.932 3         0.000  
         0.000           0.000           0.000  
  14537775.305 6  -7451420.245 6        44.494 6      3960.610 6         0.000  
         0.000           0.000           0.000  
  12472132.355 7 -27216767.776 7        46.296 7      3096.900 7         0.000  
         0.000           0.000           0.000  
  14730992.260 6 -33171514.165 6        43.274 6     -1759.835 6         0.000  
         0.000           0.000           0.000  
  11161965.228 6 -46467218.863 6        44.868 6       467.629 6         0.000  
         0.000           0.000           0.000  
  16151035.001 4  -7252067.124 4        38.658 4      -312.567 4         0.000  
         0.000           0.000           0.000  
  13627763.838 5 -36063101.276 5        41.512 5     -2028.880 5         0.000  
         0.000           0.000           0.000  
  11246385.701 6 -39695514.681 6        45.417 6      2477.258 6         0.000  
         0.000           0.000           0.000  
  12098799.159 7 -27976080.738 7        48.492 7      -615.170 7         0.000  
         0.000           0.000           0.000  
 13 11 12  0 43  8.1054903  0  9G11G12G14G15G18G19G21G22G24
  16020635.903 3  -1614713.780 3        35.626 3      3504.569 3         0.000  
         0.000           0.000           0.000  
  14537021.564 6  -7455380.590 6        44.308 6      3960.286 6         0.000  
         0.000           0.000           0.000  
  12471543.106 7 -27219864.250 7        46.399 7      3096.327 7         0.000  
         0.000           0.000           0.000  
  14731327.039 6 -33169754.278 6        43.440 6     -1759.985 6         0.000  
         0.000           0.000           0.000  
  11161876.392 6 -46467686.113 6        44.901 6       467.189 6         0.000  
         0.000           0.000           0.000  
  16151094.873 4  -7251754.418 4        38.966 4      -312.948 4         0.000  
         0.000           0.000           0.000  
  13628150.054 5 -36061072.265 5        41.426 5     -2029.294 5         0.000  
         0.000           0.000           0.000  
  11245914.391 6 -39697991.642 6        45.443 6      2476.636 6         0.000  
         0.000           0.000           0.000  
  12098916.418 7 -27975465.088 7        48.480 7      -615.859 7         0.000  
         0.000           0.000           0.000  
 13 11 12  0 43  9.1054878  0  9G11G12G14G15G18G19G21G22G24
  16019968.886 3  -1618218.117 3        35.965 3      3504.528 3         0.000  
         0.000           0.000           0.000  
  14536267.707 6  -7459340.522 6        44.323 6      3959.380 6         0.000  
         0.000           0.000           0.000  
  12470953.856 7 -27222960.331 7        46.361 7      3096.137 7         0.000  
         0.000           0.000           0.000  
  14731661.899 6 -33167994.211 6        43.656 6     -1760.218 6         0.000  
         0.000           0.000           0.000  
  11161787.470 6 -46468152.786 6        44.562 6       466.391 6         0.000  
         0.000           0.000           0.000  
  16151154.733 4  -7251441.129 4        38.695 4      -313.647 4         0.000  
         0.000           0.000           0.000  
  13628536.364 5 -36059042.861 5        41.419 5     -2029.377 5         0.000  
         0.000           0.000           0.000  
  11245443.123 6 -39700468.042 6        45.364 6      2475.936 6         0.000  
         0.000           0.000           0.000  
  12099033.776 7 -27974848.757 7        48.400 7      -616.782 7         0.000  
         0.000           0.000           0.000  
 13 11 12  0 43 10.1064853  0  9G11G12G14G15G18G19G21G22G24
  16019301.343 3  -1621725.405 3        35.832 3      3503.485 3         0.000  
         0.000           0.000           0.000  
  14535513.140 6  -7463304.058 6        44.236 6      3959.316 6         0.000  
         0.000           0.000           0.000  
  12470364.235 7 -27226059.145 7        46.238 7      3095.433 7         0.000  
         0.000           0.000           0.000  
  14731997.110 6 -33166232.254 6        43.502 6     -1760.208 6         0.000  
         0.000           0.000           0.000  
  11161698.455 6 -46468619.364 6        44.426 6       465.640 6         0.000  
         0.000           0.000           0.000  
  16151214.594 4  -7251127.003 4        38.843 4      -313.894 4         0.000  
         0.000           0.000           0.000  
  13628922.847 5 -36057011.075 5        41.775 5     -2029.959 5         0.000  
         0.000           0.000           0.000  
  11244971.509 6 -39702946.442 6        45.478 6      2475.779 6         0.000  
         0.000           0.000           0.000  
  12099151.324 7 -27974231.189 7        48.239 7      -617.110 7         0.000  
         0.000           0.000           0.000  
